$GPGGA,051514.000,4540.9193,N,00842.1796,E,1,09,1.1,266.3,M,47.2,M,,0000*51
$GPGSA,A,3,27,08,10,21,23,16,40,32,22,,,,2.0,1.1,1.7*3A
$GPGSV,4,1,15,01,16,265,14,08,70,302,38,10,58,066,46,14,01,332,*77
$GPGSV,4,2,15,16,22,188,20,21,43,276,28,22,06,144,21,23,28,048,37*75
$GPGSV,4,3,15,26,00,176,,27,70,131,41,30,00,309,,32,21,122,41*75
$GPGSV,4,4,15,39,15,116,,40,21,124,31,41,02,101,*40
$GSENSORD,0.120,0.250,-0.120
$GPRMC,051515.000,A,4540.9163,N,00842.1849,E,17.06,127.59,051022,,,A*55
$GPGGA,051515.000,4540.9163,N,00842.1849,E,1,09,1.1,266.6,M,47.2,M,,0000*57
$GPGSA,A,3,27,08,10,21,23,16,40,32,22,,,,2.0,1.1,1.7*3A
$GPGSV,4,1,15,01,16,265,13,08,70,302,36,10,58,066,44,14,01,332,*7C
$GPGSV,4,2,15,16,22,188,33,21,43,276,28,22,06,144,36,23,28,048,36*70
$GPGSV,4,3,15,26,00,176,,27,70,131,39,30,00,309,,32,21,122,39*75
$GPGSV,4,4,15,39,15,116,,40,21,124,31,41,02,101,*40
$GSENSORD,0.120,0.310,-0.180
$GPRMC,051516.000,A,4540.9136,N,00842.1908,E,18.26,121.37,051022,,,A*51
$GPGGA,051516.000,4540.9136,N,00842.1908,E,1,09,1.1,266.6,M,47.2,M,,0000*50
$GPGSA,A,3,27,08,10,21,23,16,40,32,22,,,,2.0,1.1,1.7*3A
$GPGSV,4,1,15,01,16,265,14,08,70,302,36,10,58,066,43,14,01,332,*7C
$GPGSV,4,2,15,16,22,188,29,21,43,276,37,22,06,144,28,23,28,048,26*7B
$GPGSV,4,3,15,26,00,176,,27,70,131,40,30,00,309,,32,21,122,43*76
$GPGSV,4,4,15,39,15,116,,40,21,124,35,41,02,101,*44
$GSENSORD,0.060,0.310,-0.120
$GPRMC,051517.000,A,4540.9111,N,00842.1976,E,19.60,116.12,051022,,,A*5C
$GPGGA,051517.000,4540.9111,N,00842.1976,E,1,10,1.1,266.7,M,47.2,M,,0000*54
$GPGSA,A,3,27,08,10,21,23,16,40,32,01,22,,,2.0,1.1,1.7*3B
$GPGSV,4,1,15,01,16,265,15,08,70,302,36,10,58,066,45,14,01,332,*7B
$GPGSV,4,2,15,16,22,188,32,21,43,276,35,22,06,144,26,23,28,048,32*78
$GPGSV,4,3,15,26,00,176,,27,70,131,36,30,00,309,,32,21,122,44*70
$GPGSV,4,4,15,39,15,116,,40,21,124,35,41,02,101,*44
$GSENSORD,0.060,0.180,-0.060
$GPRMC,051518.000,A,4540.9088,N,00842.2051,E,20.93,110.98,051022,,,A*5F
$GPGGA,051518.000,4540.9088,N,00842.2051,E,1,09,1.2,266.7,M,47.2,M,,0000*5E
$GPGSA,A,3,27,08,10,21,23,16,40,32,22,,,,2.0,1.2,1.7*39
$GPGSV,4,1,15,01,16,265,,08,70,302,34,10,58,066,46,14,01,332,*7E
$GPGSV,4,2,15,16,22,188,36,21,43,276,36,22,06,144,23,23,28,048,35*7D
$GPGSV,4,3,15,26,00,176,,27,70,131,36,30,00,309,,32,21,122,43*77
$GPGSV,4,4,15,39,15,116,,40,21,124,35,41,02,101,*44
$GSENSORD,-0.120,0.000,-0.120
$GPRMC,051519.000,A,4540.9069,N,00842.2129,E,20.85,108.82,051022,,,A*5A
$GPGGA,051519.000,4540.9069,N,00842.2129,E,1,09,1.1,266.8,M,47.2,M,,0000*52
$GPGSA,A,3,27,08,10,21,23,16,40,32,22,,,,2.0,1.1,1.7*3A
$GPGSV,4,1,15,01,16,265,25,08,70,302,32,10,58,066,45,14,01,332,*7C
$GPGSV,4,2,15,16,22,188,26,21,43,276,36,22,06,144,20,23,28,048,25*7E
$GPGSV,4,3,15,26,00,176,,27,70,131,36,30,00,309,,32,21,122,44*70
$GPGSV,4,4,15,39,15,116,38,40,21,124,36,41,02,101,*4C
$GSENSORD,-0.060,0.180,-0.120
$GPRMC,051520.000,A,4540.9050,N,00842.2208,E,21.08,108.32,051022,,,A*55
$GPGGA,051520.000,4540.9050,N,00842.2208,E,1,10,0.9,266.8,M,47.2,M,,0000*53
$GPGSA,A,3,27,08,10,21,23,16,40,32,01,22,,,1.6,0.9,1.3*33
$GPGSV,4,1,15,01,16,265,24,08,70,302,31,10,58,066,45,14,01,332,*7E
$GPGSV,4,2,15,16,22,188,27,21,43,276,36,22,06,144,18,23,28,048,25*74
$GPGSV,4,3,15,26,00,176,,27,70,131,36,30,00,309,,32,21,122,45*71
$GPGSV,4,4,15,39,15,116,38,40,21,124,36,41,02,101,*4C
$GSENSORD,0.120,0.430,-0.310
$GPRMC,051521.000,A,4540.9031,N,00842.2289,E,21.73,108.95,051022,,,A*5B
$GPGGA,051521.000,4540.9031,N,00842.2289,E,1,10,0.9,266.8,M,47.2,M,,0000*5C
$GPGSA,A,3,27,08,10,21,23,16,40,32,01,22,,,1.6,0.9,1.3*33
$GPGSV,4,1,15,01,16,265,22,08,70,302,31,10,58,066,45,14,01,332,*78
$GPGSV,4,2,15,16,22,188,31,21,43,276,35,22,06,144,17,23,28,048,24*7E
$GPGSV,4,3,15,26,00,176,,27,70,131,36,30,00,309,,32,21,122,41*75
$GPGSV,4,4,15,39,15,116,35,40,21,124,31,41,02,101,*46
$GSENSORD,0.120,0.180,-0.120
$GPRMC,051522.000,A,4540.9010,N,00842.2372,E,22.42,108.98,051022,,,A*52
$GPGGA,051522.000,4540.9010,N,00842.2372,E,1,10,0.9,266.9,M,47.2,M,,0000*58
$GPGSA,A,3,27,08,10,21,23,16,40,32,01,22,,,1.6,0.9,1.3*33
$GPGSV,4,1,15,01,16,265,21,08,70,302,31,10,58,066,45,14,01,332,*7B
$GPGSV,4,2,15,16,22,188,23,21,43,276,35,22,06,144,17,23,28,048,32*7A
$GPGSV,4,3,15,26,00,176,,27,70,131,36,30,00,309,,32,21,122,42*76
$GPGSV,4,4,15,39,15,116,38,40,21,124,31,41,02,101,*4B
$GSENSORD,0.060,0.180,-0.060
$GPRMC,051523.000,A,4540.8990,N,00842.2458,E,23.08,108.32,051022,,,A*53
$GPGGA,051523.000,4540.8990,N,00842.2458,E,1,10,0.9,266.9,M,47.2,M,,0000*56
$GPGSA,A,3,27,08,10,21,23,16,40,32,01,22,,,1.6,0.9,1.3*33
$GPGSV,4,1,15,01,16,265,21,08,70,302,32,10,58,066,43,14,01,332,*7E
$GPGSV,4,2,15,16,22,188,20,21,43,276,36,22,06,144,17,23,28,048,28*71
$GPGSV,4,3,15,26,00,176,,27,70,131,36,30,00,309,,32,21,122,36*75
$GPGSV,4,4,15,39,15,116,35,40,21,124,30,41,02,101,*47
$GSENSORD,0.000,0.000,-0.120
$GPRMC,051524.000,A,4540.8970,N,00842.2547,E,23.73,108.30,051022,,,A*5B
$GPGGA,051524.000,4540.8970,N,00842.2547,E,1,10,0.9,266.8,M,47.2,M,,0000*51
$GPGSA,A,3,27,08,10,21,23,16,40,32,01,22,,,1.6,0.9,1.3*33
$GPGSV,4,1,15,01,16,265,18,08,70,302,32,10,58,066,41,14,01,332,*76
$GPGSV,4,2,15,16,22,188,28,21,43,276,36,22,06,144,16,23,28,048,28*78
$GPGSV,4,3,15,26,00,176,,27,70,131,37,30,00,309,,32,21,122,44*71
$GPGSV,4,4,15,39,15,116,35,40,21,124,29,41,02,101,*4F
$GSENSORD,-0.120,0.120,-0.120
$GPRMC,051525.000,A,4540.8949,N,00842.2635,E,23.25,108.29,051022,,,A*5D
$GPGGA,051525.000,4540.8949,N,00842.2635,E,1,10,0.9,266.8,M,47.2,M,,0000*5C
$GPGSA,A,3,27,08,10,21,23,16,40,32,01,22,,,1.6,0.9,1.3*33
$GPGSV,4,1,15,01,16,265,17,08,70,302,33,10,58,066,46,14,01,332,*7F
$GPGSV,4,2,15,16,22,188,13,21,43,276,36,22,06,144,16,23,28,048,32*7B
$GPGSV,4,3,15,26,00,176,,27,70,131,36,30,00,309,,32,21,122,45*71
$GPGSV,4,4,15,39,15,116,37,40,21,124,36,41,02,101,*43
$GSENSORD,-0.120,0.250,-0.180
$GPRMC,051526.000,A,4540.8927,N,00842.2720,E,22.36,110.33,051022,,,A*52
$GPGGA,051526.000,4540.8927,N,00842.2720,E,1,10,0.9,266.7,M,47.2,M,,0000*5D
$GPGSA,A,3,27,08,10,21,23,16,40,32,01,22,,,1.6,0.9,1.3*33
$GPGSV,4,1,15,01,16,265,17,08,70,302,33,10,58,066,45,14,01,332,*7C
$GPGSV,4,2,15,16,22,188,14,21,43,276,36,22,06,144,17,23,28,048,31*7E
$GPGSV,4,3,15,26,00,176,,27,70,131,34,30,00,309,,32,21,122,44*72
$GPGSV,4,4,15,39,15,116,37,40,21,124,35,41,02,101,*40
$GSENSORD,-0.120,0.120,-0.120
$GPRMC,051527.000,A,4540.8906,N,00842.2801,E,21.56,110.03,051022,,,A*5A
$GPGGA,051527.000,4540.8906,N,00842.2801,E,1,10,0.9,266.6,M,47.2,M,,0000*52
$GPGSA,A,3,27,08,10,21,23,16,40,32,01,22,,,1.6,0.9,1.3*33
$GPGSV,4,1,15,01,16,265,15,08,70,302,33,10,58,066,44,14,01,332,*7F
$GPGSV,4,2,15,16,22,188,23,21,43,276,34,22,06,144,18,23,28,048,31*77
$GPGSV,4,3,15,26,00,176,,27,70,131,35,30,00,309,,32,21,122,41*76
$GPGSV,4,4,15,39,15,116,36,40,21,124,35,41,02,101,*41
$GSENSORD,0.000,0.120,-0.060
$GPRMC,051528.000,A,4540.8885,N,00842.2879,E,20.81,110.91,051022,,,A*50
$GPGGA,051528.000,4540.8885,N,00842.2879,E,1,10,0.9,266.6,M,47.2,M,,0000*58
$GPGSA,A,3,27,08,10,21,23,16,40,32,01,22,,,1.6,0.9,1.3*33
$GPGSV,4,1,15,01,16,265,13,08,70,302,33,10,58,066,45,14,01,332,*78
$GPGSV,4,2,15,16,22,188,19,21,43,276,34,22,06,144,27,23,28,048,26*74
$GPGSV,4,3,15,26,00,176,,27,70,131,37,30,00,309,,32,21,122,40*75
$GPGSV,4,4,15,39,15,116,35,40,21,124,32,41,02,101,*45
$GSENSORD,-0.120,0.180,-0.120
$GPRMC,051529.000,A,4540.8866,N,00842.2954,E,20.19,110.57,051022,,,A*59
$GPGGA,051529.000,4540.8866,N,00842.2954,E,1,10,0.9,266.3,M,47.2,M,,0000*5F
$GPGSA,A,3,27,08,10,21,23,16,40,32,01,22,,,1.6,0.9,1.3*33
$GPGSV,4,1,15,01,16,265,10,08,70,302,34,10,58,066,45,14,01,332,*7C
$GPGSV,4,2,15,16,22,188,24,21,43,276,33,22,06,144,24,23,28,048,35*7C
$GPGSV,4,3,15,26,00,176,,27,70,131,36,30,00,309,,32,21,122,42*76
$GPGSV,4,4,15,39,15,116,34,40,21,124,32,41,02,101,*44
$GSENSORD,-0.060,0.180,-0.120
$GPRMC,051530.000,A,4540.8846,N,00842.3027,E,19.47,111.11,051022,,,A*5D
$GPGGA,051530.000,4540.8846,N,00842.3027,E,1,10,0.9,266.0,M,47.2,M,,0000*5A
$GPGSA,A,3,27,08,10,21,23,16,40,32,01,22,,,1.6,0.9,1.3*33
$GPGSV,4,1,15,01,16,265,12,08,70,302,34,10,58,066,45,14,01,332,*7E
$GPGSV,4,2,15,16,22,188,31,21,43,276,34,22,06,144,22,23,28,048,30*7C
$GPGSV,4,3,15,26,00,176,,27,70,131,36,30,00,309,,32,21,122,43*77
$GPGSV,4,4,15,39,15,116,35,40,21,124,29,41,02,101,*4F
$GSENSORD,-0.120,0.120,-0.120
$GPRMC,051531.000,A,4540.8825,N,00842.3097,E,18.84,111.95,051022,,,A*50
$GPGGA,051531.000,4540.8825,N,00842.3097,E,1,10,1.1,266.0,M,47.2,M,,0000*5C
$GPGSA,A,3,27,08,10,21,23,16,40,32,01,22,,,2.0,1.1,1.7*3B
$GPGSV,4,1,15,01,16,265,25,08,70,302,34,10,58,066,45,14,01,332,*7A
$GPGSV,4,2,15,16,22,188,25,21,43,276,34,22,06,144,19,23,28,048,30*71
$GPGSV,4,3,15,26,00,176,,27,70,131,36,30,00,309,,32,21,122,42*76
$GPGSV,4,4,15,39,15,116,37,40,21,124,33,41,02,101,*46
$GSENSORD,-0.180,0.120,-0.120
$GPRMC,051532.000,A,4540.8805,N,00842.3163,E,18.11,114.59,051022,,,A*52
$GPGGA,051532.000,4540.8805,N,00842.3163,E,1,09,1.1,265.8,M,47.2,M,,0000*54
$GPGSA,A,3,27,08,10,21,23,16,40,32,22,,,,2.0,1.1,1.7*3A
$GPGSV,4,1,15,01,16,265,,08,70,302,34,10,58,066,41,14,01,332,*79
$GPGSV,4,2,15,16,22,188,21,21,43,276,30,22,06,144,18,23,28,048,33*73
$GPGSV,4,3,15,26,00,176,,27,70,131,33,30,00,309,,32,21,122,38*7E
$GPGSV,4,4,15,39,15,116,34,40,21,124,30,41,02,101,*46
$GSENSORD,0.000,0.180,-0.180
$GPRMC,051533.000,A,4540.8783,N,00842.3226,E,17.57,116.09,051022,,,A*5A
$GPGGA,051533.000,4540.8783,N,00842.3226,E,1,09,1.1,265.6,M,47.2,M,,0000*58
$GPGSA,A,3,27,08,10,21,23,16,40,32,22,,,,2.0,1.1,1.7*3A
$GPGSV,4,1,15,01,16,265,,08,70,301,36,10,58,066,44,14,01,332,*7D
$GPGSV,4,2,15,16,22,188,18,21,43,276,35,22,06,144,18,23,28,048,32*7D
$GPGSV,4,3,15,26,00,176,,27,70,131,33,30,00,309,,32,21,122,43*72
$GPGSV,4,4,15,39,15,116,34,40,21,124,32,41,02,101,*44
$GSENSORD,-0.310,0.180,-0.180
$GPRMC,051534.000,A,4540.8761,N,00842.3285,E,16.49,118.05,051022,,,A*54
$GPGGA,051534.000,4540.8761,N,00842.3285,E,1,09,1.1,265.6,M,47.2,M,,0000*5A
$GPGSA,A,3,27,08,10,21,23,16,40,32,22,,,,2.0,1.1,1.7*3A
$GPGSV,4,1,15,01,16,265,15,08,70,301,35,10,58,066,41,14,01,332,*7F
$GPGSV,4,2,15,16,22,188,21,21,43,276,32,22,06,144,18,23,28,048,29*7A
$GPGSV,4,3,15,26,00,176,,27,70,131,36,30,00,309,,32,21,122,41*75
$GPGSV,4,4,15,39,15,116,32,40,21,124,31,41,02,101,*41
$GSENSORD,-0.310,0.120,-0.120
$GPRMC,051535.000,A,4540.8742,N,00842.3336,E,13.72,119.25,051022,,,A*53
$GPGGA,051535.000,4540.8742,N,00842.3336,E,1,09,1.1,265.5,M,47.2,M,,0000*50
$GPGSA,A,3,27,08,10,21,23,16,40,32,22,,,,2.0,1.1,1.7*3A
$GPGSV,4,1,15,01,16,265,13,08,70,301,37,10,57,065,44,14,01,332,*72
$GPGSV,4,2,15,16,22,188,20,21,43,276,35,22,06,144,19,23,28,048,34*71
$GPGSV,4,3,15,26,00,176,,27,70,131,36,30,00,309,,32,21,122,44*70
$GPGSV,4,4,15,39,15,116,35,40,21,124,34,41,02,101,*43
$GSENSORD,-0.250,0.120,-0.120
$GPRMC,051536.000,A,4540.8726,N,00842.3375,E,10.25,120.58,051022,,,A*54
$GPGGA,051536.000,4540.8726,N,00842.3375,E,1,09,1.1,265.4,M,47.2,M,,0000*57
$GPGSA,A,3,27,08,10,21,23,16,40,32,22,,,,2.0,1.1,1.7*3A
$GPGSV,4,1,15,01,16,265,14,08,70,301,37,10,57,065,44,14,01,332,*75
$GPGSV,4,2,15,16,22,188,20,21,43,276,32,22,06,144,30,23,28,048,35*7C
$GPGSV,4,3,15,26,00,176,,27,70,131,35,30,00,309,,32,21,122,42*75
$GPGSV,4,4,15,39,15,116,35,40,21,124,33,41,02,101,*44
$GSENSORD,-0.370,0.120,-0.120
$GPRMC,051537.000,A,4540.8713,N,00842.3400,E,6.55,122.64,051022,,,A*6B
$GPGGA,051537.000,4540.8713,N,00842.3400,E,1,09,1.1,265.6,M,47.2,M,,0000*57
$GPGSA,A,3,27,08,10,21,23,16,40,32,22,,,,2.0,1.1,1.7*3A
$GPGSV,4,1,15,01,16,265,16,08,70,301,36,10,57,065,42,14,01,332,*70
$GPGSV,4,2,15,16,22,188,22,21,43,276,35,22,06,144,34,23,28,048,36*7E
$GPGSV,4,3,15,26,00,176,,27,70,131,35,30,00,309,,32,21,122,38*78
$GPGSV,4,4,15,39,15,116,39,40,21,124,33,41,02,101,*48
$GSENSORD,0.000,0.000,0.000
$GPRMC,051538.000,A,4540.8707,N,00842.3411,E,2.01,123.20,051022,,,A*65
$GPGGA,051538.000,4540.8707,N,00842.3411,E,1,10,0.9,265.7,M,47.2,M,,0000*5D
$GPGSA,A,3,27,08,10,21,23,16,40,32,01,22,,,1.6,0.9,1.3*33
$GPGSV,4,1,15,01,16,265,16,08,70,301,38,10,57,065,44,14,01,332,*78
$GPGSV,4,2,15,16,22,188,26,21,43,276,34,22,06,144,34,23,28,048,39*74
$GPGSV,4,3,15,26,00,176,,27,70,131,36,30,00,309,,32,21,122,38*7B
$GPGSV,4,4,15,39,15,116,32,40,21,124,33,41,02,101,*43
$GSENSORD,0.060,0.120,-0.060
$GPRMC,051539.000,A,4540.8705,N,00842.3416,E,0.19,123.20,051022,,,A*6A
$GPGGA,051539.000,4540.8705,N,00842.3416,E,1,10,1.1,266.1,M,47.2,M,,0000*55
$GPGSA,A,3,27,08,10,21,23,16,40,32,01,22,,,2.0,1.1,1.7*3B
$GPGSV,4,1,15,01,16,265,18,08,70,301,37,10,57,065,45,14,01,332,*78
$GPGSV,4,2,15,16,22,188,25,21,43,276,37,22,06,144,37,23,28,048,32*7C
$GPGSV,4,3,15,26,00,176,,27,70,131,38,30,00,309,,32,21,122,36*7B
$GPGSV,4,4,15,39,15,116,36,40,21,124,32,41,02,101,*46
$GSENSORD,-0.060,0.120,-0.060
$GPRMC,051540.000,A,4540.8705,N,00842.3418,E,0.05,123.20,051022,,,A*67
$GPGGA,051540.000,4540.8705,N,00842.3418,E,1,10,1.1,266.2,M,47.2,M,,0000*56
$GPGSA,A,3,27,08,10,21,23,16,40,32,01,22,,,2.0,1.1,1.7*3B
$GPGSV,4,1,15,01,16,265,19,08,70,301,37,10,57,065,47,14,01,332,*7B
$GPGSV,4,2,15,16,22,188,27,21,43,276,37,22,06,144,38,23,28,048,33*70
$GPGSV,4,3,15,26,00,176,,27,70,131,40,30,00,309,,32,21,122,36*74
$GPGSV,4,4,15,39,15,116,34,40,21,124,33,41,02,101,*45
$GSENSORD,-0.060,0.120,-0.120
$GPRMC,051541.000,A,4540.8702,N,00842.3419,E,0.02,123.20,051022,,,A*67
$GPGGA,051541.000,4540.8702,N,00842.3419,E,1,10,1.1,267.1,M,47.2,M,,0000*53
$GPGSA,A,3,27,08,10,21,23,16,40,32,01,22,,,2.0,1.1,1.7*3B
$GPGSV,4,1,15,01,16,265,18,08,70,301,35,10,57,065,46,14,01,332,*79
$GPGSV,4,2,15,16,22,188,32,21,43,276,37,22,06,144,38,23,28,048,29*7F
$GPGSV,4,3,15,26,00,176,,27,70,131,40,30,00,309,,32,21,122,35*77
$GPGSV,4,4,15,39,15,116,34,40,21,124,32,41,02,101,*44
$GSENSORD,-0.060,0.120,-0.060
$GPRMC,051542.000,A,4540.8702,N,00842.3419,E,0.00,123.20,051022,,,A*66
$GPGGA,051542.000,4540.8702,N,00842.3419,E,1,10,1.1,267.1,M,47.2,M,,0000*50
$GPGSA,A,3,27,08,10,21,23,16,40,32,01,22,,,2.0,1.1,1.7*3B
$GPGSV,4,1,15,01,16,265,19,08,70,301,36,10,57,065,46,14,01,332,*7B
$GPGSV,4,2,15,16,22,188,28,21,43,276,36,22,06,144,37,23,28,048,28*7B
$GPGSV,4,3,15,26,00,176,,27,70,131,40,30,00,309,,32,21,122,37*75
$GPGSV,4,4,15,39,15,116,36,40,21,124,33,41,02,101,*47
$GSENSORD,-0.060,0.120,-0.120
$GPRMC,051543.000,A,4540.8702,N,00842.3419,E,0.00,123.20,051022,,,A*67
$GPGGA,051543.000,4540.8702,N,00842.3419,E,1,10,1.0,267.1,M,47.2,M,,0000*50
$GPGSA,A,3,27,08,10,21,23,16,40,32,01,22,,,1.6,1.0,1.3*3B
$GPGSV,4,1,15,01,16,265,18,08,70,301,38,10,57,065,44,14,01,332,*76
$GPGSV,4,2,15,16,22,188,28,21,43,276,36,22,07,144,37,23,28,048,36*75
$GPGSV,4,3,15,26,00,176,,27,70,131,38,30,00,309,,32,21,122,37*7A
$GPGSV,4,4,15,39,15,116,34,40,21,124,33,41,02,101,*45
$GSENSORD,-0.060,0.120,-0.060
$GPRMC,051544.000,A,4540.8702,N,00842.3419,E,0.00,123.20,051022,,,A*60
$GPGGA,051544.000,4540.8702,N,00842.3419,E,1,10,0.9,267.1,M,47.2,M,,0000*5F
$GPGSA,A,3,27,08,10,21,23,16,40,32,01,22,,,1.6,0.9,1.3*33
$GPGSV,4,1,15,01,16,265,16,08,70,301,36,10,57,065,44,14,01,332,*76
$GPGSV,4,2,15,16,22,188,29,21,43,276,36,22,07,144,38,23,28,048,36*7B
$GPGSV,4,3,15,26,00,176,,27,70,131,33,30,00,309,,32,21,122,37*71
$GPGSV,4,4,15,39,15,116,35,40,21,124,33,41,02,101,*44
$GSENSORD,-0.060,0.180,-0.120
$GPRMC,051545.000,A,4540.8702,N,00842.3419,E,0.00,123.20,051022,,,A*61
$GPGGA,051545.000,4540.8702,N,00842.3419,E,1,10,1.0,267.1,M,47.2,M,,0000*56
$GPGSA,A,3,27,08,10,21,23,16,40,32,01,22,,,1.6,1.0,1.3*3B
$GPGSV,4,1,15,01,16,265,15,08,70,301,36,10,57,065,44,14,01,332,*75
$GPGSV,4,2,15,16,22,188,28,21,43,276,36,22,07,144,38,23,28,048,36*7A
$GPGSV,4,3,15,26,00,176,,27,70,131,36,30,00,309,,32,21,122,35*76
$GPGSV,4,4,15,39,15,116,31,40,21,124,33,41,02,101,*40
$GSENSORD,0.000,0.120,-0.060
$GPRMC,051546.000,A,4540.8702,N,00842.3419,E,0.00,123.20,051022,,,A*62
$GPGGA,051546.000,4540.8702,N,00842.3419,E,1,10,1.0,267.1,M,47.2,M,,0000*55
$GPGSA,A,3,27,08,10,21,23,16,40,32,01,22,,,1.6,1.0,1.3*3B
$GPGSV,4,1,15,01,16,265,16,08,70,301,36,10,57,065,45,14,01,332,*77
$GPGSV,4,2,15,16,22,188,28,21,43,276,36,22,07,144,38,23,28,048,38*74
$GPGSV,4,3,15,26,00,176,,27,70,131,37,30,00,309,,32,21,122,39*7B
$GPGSV,4,4,15,39,15,116,32,40,21,124,33,41,02,101,*43
$GSENSORD,0.120,0.120,-0.060
$GPRMC,051547.000,A,4540.8702,N,00842.3419,E,0.00,123.20,051022,,,A*63
$GPGGA,051547.000,4540.8702,N,00842.3419,E,1,10,0.9,267.1,M,47.2,M,,0000*5C
$GPGSA,A,3,27,08,10,21,23,16,40,32,01,22,,,1.6,0.9,1.3*33
$GPGSV,4,1,15,01,16,265,17,08,70,301,36,10,57,065,45,14,01,332,*76
$GPGSV,4,2,15,16,22,188,27,21,43,276,35,22,07,144,40,23,28,048,38*77
$GPGSV,4,3,15,26,00,176,,27,70,131,39,30,00,309,,32,21,122,39*75
$GPGSV,4,4,15,39,15,116,32,40,21,124,34,41,02,101,*44
$GSENSORD,0.060,0.180,-0.060
$GPRMC,051548.000,A,4540.8702,N,00842.3419,E,0.00,123.20,051022,,,A*6C
$GPGGA,051548.000,4540.8702,N,00842.3419,E,1,10,0.9,267.1,M,47.2,M,,0000*53
$GPGSA,A,3,27,08,10,21,23,16,40,32,01,22,,,1.6,0.9,1.3*33
$GPGSV,4,1,15,01,16,265,20,08,70,301,36,10,57,065,45,14,01,332,*72
$GPGSV,4,2,15,16,22,188,35,21,43,276,31,22,07,144,38,23,28,048,38*7F
$GPGSV,4,3,15,26,00,176,,27,70,131,37,30,00,309,14,32,21,122,42*72
$GPGSV,4,4,15,39,15,116,32,40,21,124,33,41,02,101,*43
$GSENSORD,0.060,0.120,-0.060
$GPRMC,051549.000,A,4540.8697,N,00842.3426,E,3.95,125.72,051022,,,A*62
$GPGGA,051549.000,4540.8697,N,00842.3426,E,1,10,1.0,267.2,M,47.2,M,,0000*58
$GPGSA,A,3,27,08,10,21,23,16,40,32,01,22,,,1.6,1.0,1.3*3B
$GPGSV,4,1,15,01,16,265,18,08,70,301,36,10,57,065,44,14,01,332,*78
$GPGSV,4,2,15,16,22,188,27,21,43,276,24,22,07,144,41,23,28,048,36*78
$GPGSV,4,3,15,26,00,176,,27,70,131,37,30,00,309,09,32,21,122,41*7D
$GPGSV,4,4,15,39,15,116,35,40,21,124,32,41,02,101,*45
$GSENSORD,0.000,0.000,-0.120
$GPRMC,051550.000,A,4540.8688,N,00842.3443,E,5.43,125.91,051022,,,A*67
$GPGGA,051550.000,4540.8688,N,00842.3443,E,1,09,1.0,267.2,M,47.2,M,,0000*55
$GPGSA,A,3,27,08,10,23,16,40,32,01,22,,,,1.7,1.0,1.3*39
$GPGSV,4,1,15,01,16,265,16,08,70,301,36,10,57,065,44,14,01,332,*76
$GPGSV,4,2,15,16,22,188,37,21,43,276,,22,07,144,43,23,28,048,36*7D
$GPGSV,4,3,15,26,00,176,,27,70,131,39,30,00,309,08,32,21,122,40*73
$GPGSV,4,4,15,39,15,116,34,40,21,124,33,41,02,101,*45
$GSENSORD,0.060,0.180,-0.120
$GPRMC,051551.000,A,4540.8676,N,00842.3464,E,6.82,126.29,051022,,,A*6C
$GPGGA,051551.000,4540.8676,N,00842.3464,E,1,09,1.0,267.0,M,47.2,M,,0000*52
$GPGSA,A,3,27,08,10,23,16,40,32,01,22,,,,1.7,1.0,1.3*39
$GPGSV,4,1,15,01,16,265,15,08,70,301,36,10,57,065,44,14,01,332,*75
$GPGSV,4,2,15,16,22,188,35,21,43,276,27,22,07,144,40,23,28,048,33*7C
$GPGSV,4,3,15,26,00,176,,27,70,131,37,30,00,309,08,32,21,122,40*7D
$GPGSV,4,4,15,39,15,116,30,40,21,124,28,41,02,101,*4B
$GSENSORD,0.060,0.180,-0.060
$GPRMC,051552.000,A,4540.8663,N,00842.3489,E,7.73,125.86,051022,,,A*61
$GPGGA,051552.000,4540.8663,N,00842.3489,E,1,10,0.9,266.9,M,47.2,M,,0000*5E
$GPGSA,A,3,27,08,10,21,23,16,40,32,01,22,,,1.6,0.9,1.3*33
$GPGSV,4,1,15,01,16,265,15,08,70,301,36,10,57,065,45,14,01,332,*74
$GPGSV,4,2,15,16,22,188,35,21,43,276,38,22,07,144,41,23,28,048,38*78
$GPGSV,4,3,15,26,00,176,,27,69,131,37,30,00,309,07,32,21,122,38*75
$GPGSV,4,4,15,39,15,116,30,40,21,124,33,41,02,101,*41
$GSENSORD,0.120,0.000,0.000
$GPRMC,051553.000,A,4540.8649,N,00842.3516,E,8.73,126.81,051022,,,A*64
$GPGGA,051553.000,4540.8649,N,00842.3516,E,1,10,0.9,266.7,M,47.2,M,,0000*5E
$GPGSA,A,3,27,08,10,21,23,16,40,32,01,22,,,1.6,0.9,1.3*33
$GPGSV,4,1,15,01,16,265,29,08,70,301,35,10,57,065,45,14,01,332,*78
$GPGSV,4,2,15,16,22,188,33,21,43,276,35,22,07,144,34,23,28,048,35*7C
$GPGSV,4,3,15,26,00,176,,27,69,131,38,30,00,309,07,32,21,122,40*75
$GPGSV,4,4,15,39,15,116,30,40,21,124,33,41,02,101,*41
$GSENSORD,0.060,0.180,-0.120
$GPRMC,051554.000,A,4540.8633,N,00842.3548,E,9.74,127.14,051022,,,A*6E
$GPGGA,051554.000,4540.8633,N,00842.3548,E,1,10,0.9,266.6,M,47.2,M,,0000*5E
$GPGSA,A,3,27,08,10,21,23,16,40,32,01,22,,,1.6,0.9,1.3*33
$GPGSV,4,1,15,01,16,265,28,08,70,301,36,10,57,065,44,14,01,332,*7B
$GPGSV,4,2,15,16,22,188,36,21,43,276,36,22,07,144,33,23,28,048,35*7D
$GPGSV,4,3,15,26,00,176,,27,69,131,38,30,00,309,07,32,21,122,39*7B
$GPGSV,4,4,15,39,15,116,30,40,21,124,33,41,02,101,*41
$GSENSORD,0.120,0.180,-0.250
$GPRMC,051555.000,A,4540.8616,N,00842.3579,E,10.12,127.13,051022,,,A*55
$GPGGA,051555.000,4540.8616,N,00842.3579,E,1,10,0.9,266.5,M,47.2,M,,0000*59
$GPGSA,A,3,27,08,10,21,23,16,40,32,01,22,,,1.6,0.9,1.3*33
$GPGSV,4,1,15,01,16,265,26,08,70,301,33,10,57,065,41,14,01,332,*75
$GPGSV,4,2,15,16,22,188,34,21,43,276,34,22,07,144,21,23,28,048,28*72
$GPGSV,4,3,15,26,00,176,,27,69,131,36,30,00,309,,32,21,122,35*7E
$GPGSV,4,4,15,39,15,116,28,40,21,124,32,41,02,101,*49
$GSENSORD,0.060,0.180,-0.120
$GPRMC,051556.000,A,4540.8596,N,00842.3614,E,11.23,128.48,051022,,,A*57
$GPGGA,051556.000,4540.8596,N,00842.3614,E,1,10,0.9,266.6,M,47.2,M,,0000*5A
$GPGSA,A,3,27,08,10,21,23,16,40,32,01,22,,,1.6,0.9,1.3*33
$GPGSV,4,1,15,01,16,265,26,08,70,301,36,10,57,065,45,14,01,332,*74
$GPGSV,4,2,15,16,22,188,31,21,43,276,36,22,07,144,22,23,28,048,30*7F
$GPGSV,4,3,15,26,00,176,,27,69,131,40,30,00,309,,32,21,122,41*7C
$GPGSV,4,4,15,39,15,116,27,40,21,124,32,41,02,101,*46
$GSENSORD,-0.060,0.120,0.000
$GPRMC,051557.000,A,4540.8574,N,00842.3652,E,12.46,128.76,051022,,,A*55
$GPGGA,051557.000,4540.8574,N,00842.3652,E,1,10,0.9,266.5,M,47.2,M,,0000*56
$GPGSA,A,3,27,08,10,21,23,16,40,32,01,22,,,1.6,0.9,1.3*33
$GPGSV,4,1,15,01,16,265,26,08,70,301,33,10,57,065,42,14,01,332,*76
$GPGSV,4,2,15,16,22,188,34,21,43,276,35,22,07,144,24,23,28,048,27*79
$GPGSV,4,3,15,26,00,176,,27,69,131,36,30,00,309,,32,21,122,36*7D
$GPGSV,4,4,15,39,15,116,27,40,21,124,32,41,02,101,*46
$GSENSORD,0.000,0.000,-0.120
$GPRMC,051558.000,A,4540.8551,N,00842.3694,E,13.42,129.11,051022,,,A*52
$GPGGA,051558.000,4540.8551,N,00842.3694,E,1,10,0.9,266.6,M,47.2,M,,0000*57
$GPGSA,A,3,27,08,10,21,23,16,40,32,01,22,,,1.6,0.9,1.3*33
$GPGSV,4,1,15,01,16,265,25,08,70,301,36,10,57,065,45,14,01,332,*77
$GPGSV,4,2,15,16,22,188,40,21,43,276,38,22,07,144,25,23,28,048,32*72
$GPGSV,4,3,15,26,00,176,,27,69,131,40,30,00,309,,32,21,122,38*72
$GPGSV,4,4,15,39,15,116,,40,21,124,32,41,02,101,*43
$GSENSORD,0.180,0.250,-0.180
$GPRMC,051559.000,A,4540.8527,N,00842.3738,E,14.15,129.02,051022,,,A*52
$GPGGA,051559.000,4540.8527,N,00842.3738,E,1,10,0.9,266.5,M,47.2,M,,0000*53
$GPGSA,A,3,27,08,10,21,23,16,40,32,01,22,,,1.6,0.9,1.3*33
$GPGSV,4,1,15,01,16,265,24,08,70,301,36,10,57,065,44,14,01,332,*77
$GPGSV,4,2,15,16,22,188,38,21,43,276,36,22,07,144,25,23,28,048,32*73
$GPGSV,4,3,15,26,00,176,,27,69,131,40,30,00,309,,32,21,122,41*7C
$GPGSV,4,4,15,39,15,116,,40,21,124,31,41,02,101,*40
$GSENSORD,0.120,0.180,-0.120
$GPRMC,051600.000,A,4540.8501,N,00842.3783,E,14.64,128.59,051022,,,A*50
$GPGGA,051600.000,4540.8501,N,00842.3783,E,1,10,0.9,266.5,M,47.2,M,,0000*58
$GPGSA,A,3,27,08,10,21,23,16,40,32,01,22,,,1.6,0.9,1.3*33
$GPGSV,4,1,15,01,16,265,24,08,70,301,37,10,57,065,45,14,01,332,*77
$GPGSV,4,2,15,16,22,188,30,21,43,276,37,22,07,144,23,23,28,048,23*7C
$GPGSV,4,3,15,26,00,176,,27,69,131,40,30,00,309,,32,21,122,43*7E
$GPGSV,4,4,15,39,15,116,,40,21,124,32,41,02,101,*43
$GSENSORD,-0.060,0.180,-0.120
$GPRMC,051601.000,A,4540.8475,N,00842.3829,E,15.01,128.66,051022,,,A*52
$GPGGA,051601.000,4540.8475,N,00842.3829,E,1,10,0.9,266.4,M,47.2,M,,0000*55
$GPGSA,A,3,27,08,10,21,23,16,40,32,01,22,,,1.6,0.9,1.3*33
$GPGSV,4,1,15,01,16,265,23,08,70,301,35,10,57,065,43,14,01,332,*74
$GPGSV,4,2,15,16,22,188,23,21,43,276,37,22,07,144,21,23,28,048,31*7F
$GPGSV,4,3,15,26,00,176,,27,69,131,40,30,00,309,,32,21,122,41*7C
$GPGSV,4,4,15,39,15,116,,40,21,124,32,41,02,101,*43
$GSENSORD,0.060,0.120,-0.060
$GPRMC,051602.000,A,4540.8450,N,00842.3876,E,14.62,127.41,051022,,,A*52
$GPGGA,051602.000,4540.8450,N,00842.3876,E,1,10,0.9,266.2,M,47.2,M,,0000*5D
$GPGSA,A,3,27,08,10,21,23,16,40,32,01,22,,,1.6,0.9,1.3*33
$GPGSV,4,1,15,01,16,265,25,08,70,301,37,10,57,065,42,14,01,332,*71
$GPGSV,4,2,15,16,22,188,22,21,43,276,37,22,07,144,19,23,28,048,31*75
$GPGSV,4,3,15,26,00,176,,27,69,131,41,30,00,309,,32,21,122,42*7E
$GPGSV,4,4,15,39,15,116,,40,21,124,32,41,02,101,*43
$GSENSORD,0.120,0.000,-0.120
$GPRMC,051603.000,A,4540.8427,N,00842.3922,E,14.13,125.48,051022,,,A*5E
$GPGGA,051603.000,4540.8427,N,00842.3922,E,1,10,0.9,266.0,M,47.2,M,,0000*5E
$GPGSA,A,3,27,08,10,21,23,16,40,32,01,22,,,1.6,0.9,1.3*33
$GPGSV,4,1,15,01,16,265,22,08,70,301,37,10,57,065,38,14,01,332,*7B
$GPGSV,4,2,15,16,22,188,25,21,43,276,37,22,07,144,18,23,28,048,30*72
$GPGSV,4,3,15,26,00,176,,27,69,131,40,30,00,309,,32,21,122,41*7C
$GPGSV,4,4,15,39,15,116,,40,21,124,32,41,02,101,*43
$GSENSORD,-0.120,0.180,-0.180
$GPRMC,051604.000,A,4540.8405,N,00842.3964,E,13.14,126.25,051022,,,A*53
$GPGGA,051604.000,4540.8405,N,00842.3964,E,1,10,0.9,265.9,M,47.2,M,,0000*51
$GPGSA,A,3,27,08,10,21,23,16,40,32,01,22,,,1.6,0.9,1.3*33
$GPGSV,4,1,15,01,16,265,18,08,70,301,36,10,57,065,29,14,01,332,*73
$GPGSV,4,2,15,16,22,188,24,21,43,276,36,22,07,144,17,23,28,048,30*7D
$GPGSV,4,3,15,26,00,176,,27,69,131,40,30,00,309,,32,21,122,42*7F
$GPGSV,4,4,15,39,15,116,,40,21,124,33,41,02,101,*42
$GSENSORD,-0.180,0.120,-0.180
$GPRMC,051605.000,A,4540.8383,N,00842.4002,E,11.71,127.20,051022,,,A*50
$GPGGA,051605.000,4540.8383,N,00842.4002,E,1,10,0.9,265.5,M,47.2,M,,0000*5B
$GPGSA,A,3,27,08,10,21,23,16,40,32,01,22,,,1.6,0.9,1.3*33
$GPGSV,4,1,15,01,16,265,18,08,70,301,36,10,57,065,45,14,01,332,*79
$GPGSV,4,2,15,16,22,188,37,21,43,276,37,22,07,144,16,23,28,048,28*76
$GPGSV,4,3,15,26,00,176,,27,69,131,41,30,00,309,,32,21,122,42*7E
$GPGSV,4,4,15,39,15,116,,40,21,124,32,41,02,101,*43
$GSENSORD,-0.060,0.180,-0.120
$GPRMC,051606.000,A,4540.8365,N,00842.4037,E,10.56,127.02,051022,,,A*59
$GPGGA,051606.000,4540.8365,N,00842.4037,E,1,10,1.1,265.4,M,47.2,M,,0000*5E
$GPGSA,A,3,27,08,10,21,23,16,40,32,01,22,,,2.0,1.1,1.7*3B
$GPGSV,4,1,15,01,16,265,18,08,70,301,36,10,57,065,45,14,01,332,*79
$GPGSV,4,2,15,16,22,188,35,21,43,276,38,22,07,144,16,23,28,048,26*75
$GPGSV,4,3,15,26,00,176,,27,69,131,41,30,00,309,,32,21,122,42*7E
$GPGSV,4,4,15,39,15,116,,40,21,124,31,41,02,101,*40
$GSENSORD,0.120,0.250,0.000
$GPRMC,051607.000,A,4540.8346,N,00842.4070,E,10.51,126.42,051022,,,A*58
$GPGGA,051607.000,4540.8346,N,00842.4070,E,1,09,1.1,265.3,M,47.2,M,,0000*52
$GPGSA,A,3,27,08,10,21,23,16,40,32,22,,,,2.0,1.1,1.7*3A
$GPGSV,4,1,15,01,16,265,,08,70,301,36,10,57,065,40,14,01,332,*75
$GPGSV,4,2,15,16,22,188,35,21,43,276,36,22,07,144,15,23,28,048,27*79
$GPGSV,4,3,15,26,00,176,,27,69,131,40,30,00,309,,32,21,122,40*7D
$GPGSV,4,4,15,39,15,116,,40,21,124,32,41,02,101,*43
$GSENSORD,0.120,0.180,-0.180
$GPRMC,051608.000,A,4540.8328,N,00842.4106,E,11.25,123.52,051022,,,A*59
$GPGGA,051608.000,4540.8328,N,00842.4106,E,1,09,1.1,265.3,M,47.2,M,,0000*55
$GPGSA,A,3,27,08,10,21,23,16,40,32,22,,,,2.0,1.1,1.7*3A
$GPGSV,4,1,15,01,16,265,27,08,70,301,36,10,57,065,42,14,01,332,*72
$GPGSV,4,2,15,16,22,188,32,21,43,276,36,22,07,144,17,23,28,048,32*78
$GPGSV,4,3,15,26,00,176,,27,69,131,39,30,00,309,,32,21,122,41*72
$GPGSV,4,4,15,39,15,116,,40,21,124,35,41,02,101,*44
$GSENSORD,0.120,0.180,-0.310
$GPRMC,051609.000,A,4540.8311,N,00842.4145,E,11.94,120.28,051022,,,A*51
$GPGGA,051609.000,4540.8311,N,00842.4145,E,1,10,1.1,265.1,M,47.2,M,,0000*53
$GPGSA,A,3,27,08,10,21,23,16,40,32,01,22,,,2.0,1.1,1.7*3B
$GPGSV,4,1,15,01,16,265,25,08,70,301,38,10,57,065,41,14,01,332,*7D
$GPGSV,4,2,15,16,22,188,26,21,43,276,35,22,07,144,17,23,28,048,27*7A
$GPGSV,4,3,15,26,00,176,,27,69,131,39,30,00,309,,32,21,122,43*70
$GPGSV,4,4,15,39,15,116,,40,21,124,36,41,02,101,*47
$GSENSORD,0.060,0.180,-0.120
$GPRMC,051610.000,A,4540.8294,N,00842.4188,E,12.49,120.02,051022,,,A*5F
$GPGGA,051610.000,4540.8294,N,00842.4188,E,1,09,1.1,264.9,M,47.2,M,,0000*57
$GPGSA,A,3,27,08,10,21,23,16,40,32,22,,,,2.0,1.1,1.7*3A
$GPGSV,4,1,15,01,16,265,,08,70,301,38,10,57,065,45,14,01,332,*7E
$GPGSV,4,2,15,16,22,188,23,21,43,276,35,22,07,144,17,23,28,048,26*7E
$GPGSV,4,3,15,26,00,176,,27,69,131,37,30,00,309,,32,21,122,43*7E
$GPGSV,4,4,15,39,15,116,,40,21,124,36,41,02,101,*47
$GSENSORD,0.060,0.180,-0.180
$GPRMC,051611.000,A,4540.8275,N,00842.4231,E,12.79,120.10,051022,,,A*50
$GPGGA,051611.000,4540.8275,N,00842.4231,E,1,10,0.9,264.8,M,47.2,M,,0000*58
$GPGSA,A,3,27,08,10,21,23,16,40,32,01,22,,,1.6,0.9,1.3*33
$GPGSV,4,1,15,01,16,265,30,08,70,301,38,10,57,065,46,14,01,332,*7E
$GPGSV,4,2,15,16,22,188,20,21,43,276,35,22,07,144,16,23,28,048,24*7E
$GPGSV,4,3,15,26,00,176,,27,69,131,39,30,00,309,,32,21,122,44*77
$GPGSV,4,4,15,39,15,116,,40,21,124,36,41,02,101,*47
$GSENSORD,0.180,0.000,-0.430
$GPRMC,051612.000,A,4540.8257,N,00842.4275,E,12.86,120.35,051022,,,A*54
$GPGGA,051612.000,4540.8257,N,00842.4275,E,1,09,1.2,264.6,M,47.2,M,,0000*57
$GPGSA,A,3,27,08,10,21,23,16,40,32,22,,,,2.1,1.2,1.7*38
$GPGSV,4,1,15,01,16,265,21,08,70,301,38,10,57,065,45,14,01,332,*7D
$GPGSV,4,2,15,16,22,188,16,21,43,276,35,22,07,144,16,23,28,048,31*7F
$GPGSV,4,3,15,26,00,176,,27,69,131,37,30,00,309,,32,21,122,39*73
$GPGSV,4,4,15,39,15,116,,40,21,124,36,41,02,101,*47
$GSENSORD,0.560,0.310,0.120
$GPRMC,051613.000,A,4540.8239,N,00842.4317,E,12.21,120.23,051022,,,A*52
$GPGGA,051613.000,4540.8239,N,00842.4317,E,1,09,1.1,264.5,M,47.2,M,,0000*5B
$GPGSA,A,3,27,08,10,21,23,16,40,32,22,,,,2.0,1.1,1.7*3A
$GPGSV,4,1,15,01,16,265,20,08,70,301,38,10,57,065,45,14,01,332,*7C
$GPGSV,4,2,15,16,22,188,14,21,43,276,33,22,07,144,19,23,27,048,25*7E
$GPGSV,4,3,15,26,00,176,,27,69,131,37,30,00,309,,32,21,122,45*78
$GPGSV,4,4,15,39,15,116,,40,21,124,35,41,02,101,*44
$GSENSORD,0.180,0.250,-0.180
$GPRMC,051614.000,A,4540.8221,N,00842.4362,E,13.24,119.68,051022,,,A*5F
$GPGGA,051614.000,4540.8221,N,00842.4362,E,1,10,0.9,264.2,M,47.2,M,,0000*51
$GPGSA,A,3,27,08,10,21,23,16,40,32,01,22,,,1.6,0.9,1.3*33
$GPGSV,4,1,15,01,16,265,18,08,70,301,37,10,57,065,45,14,01,332,*78
$GPGSV,4,2,15,16,22,188,14,21,43,276,33,22,07,144,20,23,27,048,23*72
$GPGSV,4,3,15,26,00,176,,27,69,131,37,30,00,309,,32,21,122,44*79
$GPGSV,4,4,15,39,15,116,,40,21,124,35,41,02,101,*44
$GSENSORD,0.120,0.180,-0.120
$GPRMC,051615.000,A,4540.8200,N,00842.4411,E,14.70,120.53,051022,,,A*5A
$GPGGA,051615.000,4540.8200,N,00842.4411,E,1,10,0.9,264.2,M,47.2,M,,0000*50
$GPGSA,A,3,27,08,10,21,23,16,40,32,01,22,,,1.6,0.9,1.3*33
$GPGSV,4,1,15,01,16,265,17,08,70,301,35,10,57,065,45,14,01,332,*75
$GPGSV,4,2,15,16,22,188,16,21,43,276,29,22,07,144,20,23,27,048,34*7D
$GPGSV,4,3,15,26,00,176,,27,69,131,36,30,00,309,,32,21,122,42*7E
$GPGSV,4,4,15,39,15,116,,40,21,124,37,41,02,101,*46
$GSENSORD,0.000,0.000,0.000
$GPRMC,051616.000,A,4540.8179,N,00842.4462,E,15.34,120.57,051022,,,A*55
$GPGGA,051616.000,4540.8179,N,00842.4462,E,1,10,0.9,264.0,M,47.2,M,,0000*58
$GPGSA,A,3,27,08,10,21,23,16,40,32,01,22,,,1.6,0.9,1.3*33
$GPGSV,4,1,15,01,16,265,16,08,70,301,36,10,57,065,44,14,01,332,*76
$GPGSV,4,2,15,16,22,188,18,21,43,276,26,22,07,144,21,23,27,048,21*79
$GPGSV,4,3,15,26,00,176,,27,69,131,37,30,00,309,,32,21,122,43*7E
$GPGSV,4,4,15,39,15,116,,40,21,124,35,41,02,101,*44
$GSENSORD,-0.120,0.180,-0.120
$GPRMC,051617.000,A,4540.8158,N,00842.4514,E,15.30,120.51,051022,,,A*55
$GPGGA,051617.000,4540.8158,N,00842.4514,E,1,09,1.0,263.6,M,47.2,M,,0000*5B
$GPGSA,A,3,27,08,10,23,16,40,32,01,22,,,,1.7,1.0,1.3*39
$GPGSV,4,1,15,01,16,265,16,08,70,301,37,10,57,065,44,14,01,332,*77
$GPGSV,4,2,15,16,22,188,19,21,43,276,,22,07,144,24,23,27,048,22*7A
$GPGSV,4,3,15,26,00,176,,27,69,131,37,30,00,309,,32,21,122,42*7F
$GPGSV,4,4,15,39,15,116,,40,21,124,37,41,02,101,*46
$GSENSORD,0.120,0.180,-0.120
$GPRMC,051618.000,A,4540.8136,N,00842.4567,E,15.65,120.73,051022,,,A*56
$GPGGA,051618.000,4540.8136,N,00842.4567,E,1,09,1.0,263.2,M,47.2,M,,0000*5C
$GPGSA,A,3,27,08,10,23,16,40,32,01,22,,,,1.7,1.0,1.3*39
$GPGSV,4,1,15,01,16,265,17,08,70,301,34,10,57,065,43,14,01,332,*72
$GPGSV,4,2,15,16,22,188,19,21,43,276,,22,07,144,24,23,27,048,22*7A
$GPGSV,4,3,15,26,00,176,,27,69,131,37,30,00,309,,32,21,122,42*7F
$GPGSV,4,4,15,39,15,116,34,40,21,124,31,41,02,101,*47
$GSENSORD,0.000,0.180,-0.120
$GPRMC,051619.000,A,4540.8111,N,00842.4622,E,16.55,122.04,051022,,,A*52
$GPGGA,051619.000,4540.8111,N,00842.4622,E,1,09,1.0,263.1,M,47.2,M,,0000*59
$GPGSA,A,3,27,08,10,23,16,40,32,01,22,,,,1.7,1.0,1.3*39
$GPGSV,4,1,15,01,16,265,15,08,70,301,36,10,57,065,43,14,01,332,*72
$GPGSV,4,2,15,16,22,188,19,21,43,276,,22,07,144,24,23,27,048,23*7B
$GPGSV,4,3,15,26,00,176,,27,69,131,39,30,00,309,,32,21,122,41*72
$GPGSV,4,4,15,39,15,116,37,40,21,124,34,41,02,101,*41
$GSENSORD,0.060,0.180,-0.060
$GPRMC,051620.000,A,4540.8087,N,00842.4680,E,17.29,120.71,051022,,,A*54
$GPGGA,051620.000,4540.8087,N,00842.4680,E,1,09,1.0,262.8,M,47.2,M,,0000*5D
$GPGSA,A,3,27,08,10,23,16,40,32,01,22,,,,1.7,1.0,1.3*39
$GPGSV,4,1,15,01,16,265,14,08,70,301,33,10,57,065,40,14,01,332,*75
$GPGSV,4,2,15,16,22,188,17,21,43,276,,22,07,144,21,23,27,048,19*79
$GPGSV,4,3,15,26,00,176,,27,69,131,35,30,00,309,,32,21,122,40*7F
$GPGSV,4,4,15,39,15,116,33,40,21,124,34,41,02,101,*45
$GSENSORD,-0.060,0.000,-0.120
$GPRMC,051621.000,A,4540.8060,N,00842.4741,E,17.99,121.14,051022,,,A*59
$GPGGA,051621.000,4540.8060,N,00842.4741,E,1,10,0.9,262.8,M,47.2,M,,0000*59
$GPGSA,A,3,27,08,10,21,23,16,40,32,01,22,,,1.6,0.9,1.3*33
$GPGSV,4,1,15,01,16,265,12,08,70,301,36,10,57,065,44,14,01,332,*72
$GPGSV,4,2,15,16,22,188,15,21,43,276,35,22,07,144,30,23,27,048,28*7F
$GPGSV,4,3,15,26,00,176,,27,69,131,38,30,00,309,,32,21,122,44*76
$GPGSV,4,4,15,39,15,116,36,40,21,124,35,41,02,101,*41
$GSENSORD,-0.120,0.250,-0.180
$GPRMC,051622.000,A,4540.8032,N,00842.4806,E,18.66,120.75,051022,,,A*58
$GPGGA,051622.000,4540.8032,N,00842.4806,E,1,10,0.9,263.1,M,47.2,M,,0000*59
$GPGSA,A,3,27,08,10,21,23,16,40,32,01,22,,,1.6,0.9,1.3*33
$GPGSV,4,1,15,01,16,265,09,08,70,301,36,10,57,065,44,14,01,332,*78
$GPGSV,4,2,15,16,22,188,16,21,43,276,34,22,07,144,39,23,27,048,28*74
$GPGSV,4,3,15,26,00,176,,27,69,131,40,30,00,309,,32,21,122,42*7F
$GPGSV,4,4,15,39,15,116,36,40,21,124,35,41,02,101,*41
$GSENSORD,-0.120,0.180,-0.250
$GPRMC,051623.000,A,4540.8006,N,00842.4869,E,17.93,121.13,051022,,,A*53
$GPGGA,051623.000,4540.8006,N,00842.4869,E,1,10,0.9,263.3,M,47.2,M,,0000*54
$GPGSA,A,3,27,08,10,21,23,16,40,32,01,22,,,1.6,0.9,1.3*33
$GPGSV,4,1,15,01,16,265,08,08,70,301,36,10,57,065,44,14,01,332,*79
$GPGSV,4,2,15,16,22,188,33,21,43,276,34,22,07,144,35,23,27,048,33*75
$GPGSV,4,3,15,26,00,176,,27,69,131,38,30,00,309,,32,21,122,43*71
$GPGSV,4,4,15,39,15,116,38,40,21,124,36,41,02,101,*4C
$GSENSORD,-0.250,0.250,-0.060
$GPRMC,051624.000,A,4540.7981,N,00842.4928,E,16.90,121.20,051022,,,A*5B
$GPGGA,051624.000,4540.7981,N,00842.4928,E,1,10,0.9,263.5,M,47.2,M,,0000*58
$GPGSA,A,3,27,08,10,21,23,16,40,32,01,22,,,1.6,0.9,1.3*33
$GPGSV,4,1,15,01,16,265,07,08,70,301,36,10,57,065,45,14,02,331,*77
$GPGSV,4,2,15,16,22,188,34,21,43,276,35,22,07,144,37,23,27,048,33*71
$GPGSV,4,3,15,26,00,176,,27,69,131,38,30,00,309,,32,21,122,42*70
$GPGSV,4,4,15,39,15,116,36,40,21,124,35,41,02,101,*41
$GSENSORD,0.180,0.000,0.250
$GPRMC,051625.000,A,4540.7958,N,00842.4983,E,15.81,121.25,051022,,,A*59
$GPGGA,051625.000,4540.7958,N,00842.4983,E,1,10,0.9,263.4,M,47.2,M,,0000*5D
$GPGSA,A,3,27,08,10,21,23,16,40,32,01,22,,,1.6,0.9,1.3*33
$GPGSV,4,1,15,01,16,265,07,08,70,301,36,10,57,065,44,14,02,331,*76
$GPGSV,4,2,15,16,22,188,34,21,43,276,35,22,07,144,42,23,27,048,38*78
$GPGSV,4,3,15,26,00,176,,27,69,131,38,30,00,309,,32,21,122,42*70
$GPGSV,4,4,15,39,15,116,36,40,21,124,36,41,02,101,*42
$GSENSORD,-0.120,-0.120,-0.180
$GPRMC,051626.000,A,4540.7933,N,00842.5034,E,15.45,128.90,051022,,,A*5C
$GPGGA,051626.000,4540.7933,N,00842.5034,E,1,10,0.9,263.6,M,47.2,M,,0000*55
$GPGSA,A,3,27,08,10,21,23,16,40,32,01,22,,,1.6,0.9,1.3*33
$GPGSV,4,1,15,01,16,265,06,08,70,301,36,10,57,065,45,14,02,331,*76
$GPGSV,4,2,15,16,22,188,37,21,43,276,38,22,07,144,39,23,27,048,35*77
$GPGSV,4,3,15,26,00,176,,27,69,131,41,30,00,309,,32,21,122,40*7C
$GPGSV,4,4,15,39,15,116,36,40,21,124,32,41,02,101,*46
$GSENSORD,0.120,-0.120,-0.180
$GPRMC,051627.000,A,4540.7899,N,00842.5078,E,15.86,142.41,051022,,,A*5B
$GPGGA,051627.000,4540.7899,N,00842.5078,E,1,10,1.0,264.1,M,47.2,M,,0000*55
$GPGSA,A,3,27,08,10,21,23,16,40,32,01,22,,,1.6,1.0,1.3*3B
$GPGSV,4,1,15,01,16,265,06,08,70,301,37,10,57,065,45,14,02,331,*77
$GPGSV,4,2,15,16,22,188,40,21,43,276,41,22,07,144,31,23,27,048,26*73
$GPGSV,4,3,15,26,00,176,,27,69,131,42,30,00,309,,32,21,122,37*7F
$GPGSV,4,4,15,39,15,116,33,40,21,124,28,41,02,101,*48
$GSENSORD,-0.250,-0.060,-0.120
$GPRMC,051628.000,A,4540.7862,N,00842.5109,E,16.13,154.94,051022,,,A*57
$GPGGA,051628.000,4540.7862,N,00842.5109,E,1,09,1.1,263.7,M,47.2,M,,0000*51
$GPGSA,A,3,27,08,10,21,23,16,40,32,22,,,,2.0,1.1,1.7*3A
$GPGSV,4,1,15,01,16,265,06,08,70,301,37,10,57,065,42,14,02,331,*70
$GPGSV,4,2,15,16,22,188,37,21,43,276,36,22,07,144,37,23,27,048,26*75
$GPGSV,4,3,15,26,00,176,,27,69,131,42,30,00,309,,32,21,122,41*7E
$GPGSV,4,4,15,39,15,116,30,40,21,124,30,41,02,101,*42
$GSENSORD,-0.180,-0.060,-0.060
$GPRMC,051629.000,A,4540.7821,N,00842.5128,E,15.61,166.04,051022,,,A*5C
$GPGGA,051629.000,4540.7821,N,00842.5128,E,1,09,1.1,263.3,M,47.2,M,,0000*50
$GPGSA,A,3,27,08,10,21,23,16,40,32,22,,,,2.0,1.1,1.7*3A
$GPGSV,4,1,15,01,16,265,06,08,70,301,35,10,57,065,40,14,02,331,*70
$GPGSV,4,2,15,16,22,188,37,21,43,276,29,22,07,144,35,23,27,048,37*79
$GPGSV,4,3,15,26,00,176,,27,69,131,42,30,00,309,,32,21,122,36*7E
$GPGSV,4,4,15,39,15,116,29,40,21,124,30,41,02,101,*4A
$GSENSORD,0.310,-0.250,0.370
$GPRMC,051630.000,A,4540.7780,N,00842.5134,E,15.22,178.41,051022,,,A*54
$GPGGA,051630.000,4540.7780,N,00842.5134,E,1,10,1.0,263.0,M,47.2,M,,0000*5B
$GPGSA,A,3,27,08,10,21,23,16,40,32,01,22,,,1.6,1.0,1.3*3B
$GPGSV,4,1,15,01,16,265,32,08,70,301,38,10,57,065,43,14,02,331,*79
$GPGSV,4,2,15,16,22,188,41,21,43,276,33,22,07,144,31,23,27,048,35*75
$GPGSV,4,3,15,26,00,176,,27,69,131,43,30,00,309,,32,21,122,33*7A
$GPGSV,4,4,15,39,15,116,27,40,21,124,27,41,02,101,*42
$GSENSORD,-1.120,0.370,-1.060
$GPRMC,051631.000,A,4540.7741,N,00842.5122,E,14.53,194.82,051022,,,A*55
$GPGGA,051631.000,4540.7741,N,00842.5122,E,1,10,1.0,262.6,M,47.2,M,,0000*57
$GPGSA,A,3,27,08,10,21,23,16,40,32,01,22,,,1.6,1.0,1.3*3B
$GPGSV,4,1,15,01,16,265,26,08,70,301,41,10,57,065,42,14,02,331,*73
$GPGSV,4,2,15,16,22,188,35,21,43,277,40,22,07,144,24,23,27,048,31*73
$GPGSV,4,3,15,26,00,176,,27,69,131,41,30,00,309,,32,21,122,36*7D
$GPGSV,4,4,15,39,15,116,28,40,21,124,28,41,02,101,*42
$GSENSORD,0.310,-0.180,-0.180
$GPRMC,051632.000,A,4540.7705,N,00842.5094,E,14.80,210.70,051022,,,A*56
$GPGGA,051632.000,4540.7705,N,00842.5094,E,1,09,1.0,262.2,M,47.2,M,,0000*54
$GPGSA,A,3,27,08,10,21,23,16,32,01,22,,,,1.6,1.0,1.3*3F
$GPGSV,4,1,14,01,16,265,32,08,70,301,40,10,57,065,37,14,02,331,*74
$GPGSV,4,2,14,16,22,188,34,21,43,277,42,22,07,144,23,23,27,048,24*72
$GPGSV,4,3,14,26,00,176,,27,69,131,38,32,21,122,18,39,15,116,27*7A
$GPGSV,4,4,14,40,21,124,,41,02,101,*7B
$GSENSORD,0.120,0.180,-0.120
$GPRMC,051633.000,A,4540.7671,N,00842.5056,E,16.14,219.96,051022,,,A*55
$GPGGA,051633.000,4540.7671,N,00842.5056,E,1,08,1.0,262.0,M,47.2,M,,0000*5A
$GPGSA,A,3,27,08,10,21,23,16,01,22,,,,,1.7,1.0,1.3*3F
$GPGSV,4,1,14,01,16,265,28,08,70,301,40,10,57,065,39,14,02,331,*71
$GPGSV,4,2,14,16,22,188,36,21,43,277,31,22,07,144,21,23,27,048,26*74
$GPGSV,4,3,14,26,00,176,,27,69,131,33,32,21,122,23,39,15,116,*7C
$GPGSV,4,4,14,40,21,124,,41,02,101,*7B
$GSENSORD,-0.060,0.310,-0.120
$GPRMC,051634.000,A,4540.7634,N,00842.5011,E,17.86,221.07,051022,,,A*59
$GPGGA,051634.000,4540.7634,N,00842.5011,E,1,08,1.0,261.7,M,47.2,M,,0000*5B
$GPGSA,A,3,27,08,10,21,23,16,01,22,,,,,1.7,1.0,1.3*3F
$GPGSV,4,1,14,01,16,265,27,08,70,301,40,10,57,065,39,14,02,331,*7E
$GPGSV,4,2,14,16,22,188,29,21,43,277,37,22,07,144,30,23,27,048,27*7D
$GPGSV,4,3,14,26,00,176,,27,69,131,35,32,21,122,23,39,15,116,*7A
$GPGSV,4,4,14,40,21,124,,41,02,101,*7B
$GSENSORD,0.120,0.000,-0.250
$GPRMC,051635.000,A,4540.7593,N,00842.4966,E,18.87,218.51,051022,,,A*59
$GPGGA,051635.000,4540.7593,N,00842.4966,E,1,09,1.0,261.7,M,47.2,M,,0000*5D
$GPGSA,A,3,27,08,10,21,23,16,32,01,22,,,,1.6,1.0,1.3*3F
$GPGSV,4,1,14,01,16,265,27,08,70,301,41,10,57,065,37,14,02,331,*71
$GPGSV,4,2,14,16,22,188,36,21,43,277,40,22,07,144,20,23,27,048,29*7C
$GPGSV,4,3,14,26,00,176,,27,69,131,35,32,21,122,21,39,15,116,*78
$GPGSV,4,4,14,40,21,124,,41,02,101,*7B
$GSENSORD,0.120,0.180,-0.250
$GPRMC,051636.000,A,4540.7551,N,00842.4918,E,19.89,217.21,051022,,,A*5A
$GPGGA,051636.000,4540.7551,N,00842.4918,E,1,08,1.0,261.3,M,47.2,M,,0000*5C
$GPGSA,A,3,27,08,10,21,23,16,32,01,,,,,1.8,1.0,1.4*36
$GPGSV,4,1,14,01,16,265,33,08,70,301,41,10,57,065,38,14,02,331,*7B
$GPGSV,4,2,14,16,22,188,36,21,43,277,40,22,07,144,19,23,27,048,28*77
$GPGSV,4,3,14,26,00,176,,27,69,131,35,32,21,122,20,39,15,116,*79
$GPGSV,4,4,14,40,21,124,,41,02,101,*7B
$GSENSORD,-0.060,0.180,-0.180
$GPRMC,051637.000,A,4540.7507,N,00842.4870,E,19.78,216.81,051022,,,A*52
$GPGGA,051637.000,4540.7507,N,00842.4870,E,1,08,1.0,261.0,M,47.2,M,,0000*52
$GPGSA,A,3,27,08,10,21,23,16,32,01,,,,,1.8,1.0,1.4*36
$GPGSV,4,1,14,01,16,265,37,08,70,301,41,10,57,065,38,14,02,331,*7F
$GPGSV,4,2,14,16,22,188,28,21,43,277,41,22,07,144,22,23,27,048,27*7E
$GPGSV,4,3,14,26,00,176,,27,69,132,34,32,21,122,22,39,15,116,*79
$GPGSV,4,4,14,40,21,124,,41,02,101,*7B
$GSENSORD,-0.120,0.180,-0.120
$GPRMC,051638.000,A,4540.7461,N,00842.4823,E,20.56,216.36,051022,,,A*50
$GPGGA,051638.000,4540.7461,N,00842.4823,E,1,08,1.0,260.7,M,47.2,M,,0000*5C
$GPGSA,A,3,27,08,10,21,23,16,32,01,,,,,1.8,1.0,1.4*36
$GPGSV,4,1,14,01,16,265,24,08,70,301,42,10,57,065,38,14,02,331,*7E
$GPGSV,4,2,14,16,22,188,38,21,43,277,41,22,07,144,,23,27,048,28*70
$GPGSV,4,3,14,26,00,176,,27,69,132,34,32,21,122,24,39,15,116,*7F
$GPGSV,4,4,14,40,21,124,,41,02,101,*7B
$GSENSORD,0.180,0.250,-0.250
$GPRMC,051639.000,A,4540.7414,N,00842.4773,E,21.16,217.58,051022,,,A*55
$GPGGA,051639.000,4540.7414,N,00842.4773,E,1,08,1.0,260.7,M,47.2,M,,0000*55
$GPGSA,A,3,27,08,10,21,23,16,32,01,,,,,1.8,1.0,1.4*36
$GPGSV,4,1,14,01,16,265,30,08,70,301,42,10,57,065,37,14,02,331,*74
$GPGSV,4,2,14,16,22,188,30,21,43,277,39,22,07,144,,23,27,048,28*77
$GPGSV,4,3,14,26,00,176,,27,69,132,34,32,21,122,22,39,15,116,*79
$GPGSV,4,4,14,40,21,124,,41,02,101,*7B
$GSENSORD,0.250,0.250,-0.120
$GPRMC,051640.000,A,4540.7366,N,00842.4720,E,22.03,217.68,051022,,,A*5B
$GPGGA,051640.000,4540.7366,N,00842.4720,E,1,08,1.0,260.5,M,47.2,M,,0000*5D
$GPGSA,A,3,27,08,10,21,23,16,32,01,,,,,1.8,1.0,1.4*36
$GPGSV,4,1,14,01,16,265,30,08,70,301,42,10,57,065,38,14,02,331,*7B
$GPGSV,4,2,14,16,22,188,20,21,43,277,40,22,07,144,,23,27,048,28*78
$GPGSV,4,3,14,26,00,176,,27,69,132,33,32,21,122,22,39,15,116,*7E
$GPGSV,4,4,14,40,21,124,,41,02,101,*7B
$GSENSORD,0.120,0.180,-0.120
$GPRMC,051641.000,A,4540.7316,N,00842.4665,E,22.82,218.31,051022,,,A*57
$GPGGA,051641.000,4540.7316,N,00842.4665,E,1,08,1.0,260.3,M,47.2,M,,0000*5D
$GPGSA,A,3,27,08,10,21,23,16,32,01,,,,,1.8,1.0,1.4*36
$GPGSV,4,1,14,01,16,265,30,08,70,301,40,10,57,065,38,14,02,331,*79
$GPGSV,4,2,14,16,22,188,19,21,43,277,39,22,07,144,25,23,27,048,28*7B
$GPGSV,4,3,14,26,00,176,,27,69,132,30,32,21,121,23,39,15,116,*7F
$GPGSV,4,4,14,40,21,124,,41,02,101,*7B
$GSENSORD,0.120,0.180,-0.120
$GPRMC,051642.000,A,4540.7266,N,00842.4607,E,23.50,218.89,051022,,,A*5B
$GPGGA,051642.000,4540.7266,N,00842.4607,E,1,08,1.0,260.3,M,47.2,M,,0000*5C
$GPGSA,A,3,27,08,10,21,23,16,32,01,,,,,1.8,1.0,1.4*36
$GPGSV,4,1,14,01,16,265,43,08,70,301,40,10,57,065,38,14,02,331,*7D
$GPGSV,4,2,14,16,22,188,36,21,43,277,39,22,07,144,20,23,27,048,28*73
$GPGSV,4,3,14,26,00,176,,27,69,132,34,32,21,121,23,39,15,116,*7B
$GPGSV,4,4,14,40,21,124,,41,02,101,*7B
$GSENSORD,0.120,0.180,-0.180
$GPRMC,051643.000,A,4540.7214,N,00842.4548,E,24.24,218.59,051022,,,A*5E
$GPGGA,051643.000,4540.7214,N,00842.4548,E,1,09,1.0,260.1,M,47.2,M,,0000*53
$GPGSA,A,3,27,08,10,21,23,16,32,01,22,,,,1.6,1.0,1.3*3F
$GPGSV,4,1,14,01,16,265,27,08,70,301,38,10,57,065,32,14,02,331,*7A
$GPGSV,4,2,14,16,22,188,33,21,43,277,37,22,07,144,29,23,27,048,28*71
$GPGSV,4,3,14,26,00,176,,27,69,132,30,32,21,121,20,39,15,116,*7C
$GPGSV,4,4,14,40,21,124,,41,02,101,*7B
$GSENSORD,0.000,0.000,0.000
$GPRMC,051644.000,A,4540.7161,N,00842.4486,E,24.60,219.31,051022,,,A*54
$GPGGA,051644.000,4540.7161,N,00842.4486,E,1,08,1.0,259.8,M,47.2,M,,0000*54
$GPGSA,A,3,27,08,10,21,23,16,01,22,,,,,1.7,1.0,1.3*3F
$GPGSV,4,1,14,01,16,265,41,08,70,301,41,10,57,065,37,14,02,331,*71
$GPGSV,4,2,14,16,22,188,36,21,43,277,40,22,07,144,21,23,27,048,28*7C
$GPGSV,4,3,14,26,00,176,,27,69,132,32,32,21,121,24,39,15,116,*7A
$GPGSV,4,4,14,40,21,124,,41,02,101,*7B
$GSENSORD,-0.250,0.180,-0.310
$GPRMC,051645.000,A,4540.7108,N,00842.4426,E,24.37,218.16,051022,,,A*56
$GPGGA,051645.000,4540.7108,N,00842.4426,E,1,08,1.0,259.6,M,47.2,M,,0000*5E
$GPGSA,A,3,27,08,10,21,23,16,01,22,,,,,1.7,1.0,1.3*3F
$GPGSV,4,1,14,01,16,265,38,08,70,301,40,10,57,065,38,14,02,331,*71
$GPGSV,4,2,14,16,22,188,30,21,43,277,36,22,07,144,23,23,27,048,28*79
$GPGSV,4,3,14,26,00,176,,27,69,132,32,32,21,121,23,39,15,116,*7D
$GPGSV,4,4,14,40,21,124,,41,02,101,*7B
$GSENSORD,-0.120,0.180,-0.180
$GPRMC,051646.000,A,4540.7058,N,00842.4366,E,22.86,220.26,051022,,,A*56
$GPGGA,051646.000,4540.7058,N,00842.4366,E,1,08,1.0,259.2,M,47.2,M,,0000*5E
$GPGSA,A,3,27,08,10,21,23,16,01,22,,,,,1.7,1.0,1.3*3F
$GPGSV,4,1,14,01,16,265,44,08,70,301,40,10,57,065,37,14,02,331,*75
$GPGSV,4,2,14,16,22,188,37,21,43,277,40,22,07,144,19,23,27,048,28*76
$GPGSV,4,3,14,26,00,176,,27,69,132,31,32,21,121,20,39,15,116,*7D
$GPGSV,4,4,14,40,21,124,,41,02,101,*7B
$GSENSORD,-0.180,0.310,-0.250
$GPRMC,051647.000,A,4540.7012,N,00842.4308,E,22.03,220.89,051022,,,A*59
$GPGGA,051647.000,4540.7012,N,00842.4308,E,1,09,1.0,258.9,M,47.2,M,,0000*52
$GPGSA,A,3,27,08,10,21,23,16,32,01,22,,,,1.6,1.0,1.3*3F
$GPGSV,4,1,14,01,16,265,38,08,70,301,41,10,57,065,37,14,02,331,*7F
$GPGSV,4,2,14,16,22,188,37,21,43,277,39,22,07,144,16,23,27,048,28*77
$GPGSV,4,3,14,26,00,176,,27,69,132,30,32,21,121,21,39,15,116,*7D
$GPGSV,4,4,14,40,21,124,,41,02,101,*7B
$GSENSORD,-0.120,0.060,-0.060
$GPRMC,051648.000,A,4540.6967,N,00842.4252,E,21.17,220.70,051022,,,A*52
$GPGGA,051648.000,4540.6967,N,00842.4252,E,1,08,1.0,258.7,M,47.2,M,,0000*56
$GPGSA,A,3,27,08,10,21,23,16,32,01,,,,,1.8,1.0,1.4*36
$GPGSV,4,1,14,01,16,265,26,08,70,301,41,10,57,065,37,14,02,331,*70
$GPGSV,4,2,14,16,22,188,37,21,43,277,39,22,07,144,,23,27,048,27*7F
$GPGSV,4,3,14,26,00,176,,27,69,132,30,32,21,121,21,39,15,116,*7D
$GPGSV,4,4,14,40,21,124,,41,02,101,*7B
$GSENSORD,-0.180,0.250,-0.180
$GPRMC,051649.000,A,4540.6924,N,00842.4199,E,20.54,219.79,051022,,,A*55
$GPGGA,051649.000,4540.6924,N,00842.4199,E,1,08,1.0,258.3,M,47.2,M,,0000*50
$GPGSA,A,3,27,08,10,21,23,16,32,01,,,,,1.8,1.0,1.4*36
$GPGSV,4,1,14,01,16,265,41,08,70,301,41,10,57,065,37,14,02,331,*71
$GPGSV,4,2,14,16,22,188,37,21,43,277,40,22,07,144,21,23,27,048,28*7D
$GPGSV,4,3,14,26,00,176,,27,69,132,30,32,21,121,21,39,15,116,*7D
$GPGSV,4,4,14,40,21,124,,41,02,101,*7B
$GSENSORD,-0.120,0.310,-0.180
$GPRMC,051650.000,A,4540.6877,N,00842.4148,E,21.06,216.58,051022,,,A*5C
$GPGGA,051650.000,4540.6877,N,00842.4148,E,1,09,1.0,258.4,M,47.2,M,,0000*55
$GPGSA,A,3,27,08,10,21,23,16,32,01,22,,,,1.6,1.0,1.3*3F
$GPGSV,4,1,14,01,16,265,41,08,70,301,42,10,57,065,37,14,02,331,*72
$GPGSV,4,2,14,16,22,188,27,21,43,277,40,22,07,144,27,23,27,048,29*7B
$GPGSV,4,3,14,26,00,176,,27,69,132,35,32,21,121,22,39,15,116,*7B
$GPGSV,4,4,14,40,21,124,,41,02,101,*7B
$GSENSORD,-0.060,0.250,-0.060
$GPRMC,051651.000,A,4540.6829,N,00842.4101,E,21.52,212.22,051022,,,A*53
$GPGGA,051651.000,4540.6829,N,00842.4101,E,1,09,1.0,258.4,M,47.2,M,,0000*52
$GPGSA,A,3,27,08,10,21,23,16,32,01,22,,,,1.6,1.0,1.3*3F
$GPGSV,4,1,14,01,16,265,39,08,70,301,42,10,57,065,36,14,02,331,*7C
$GPGSV,4,2,14,16,22,188,38,21,43,277,41,22,07,144,23,23,27,048,26*7F
$GPGSV,4,3,14,26,00,176,,27,69,132,38,32,21,121,22,39,15,116,*76
$GPGSV,4,4,14,40,21,124,,41,02,101,*7B
$GSENSORD,-0.060,0.180,-0.120
$GPRMC,051652.000,A,4540.6776,N,00842.4058,E,21.98,209.31,051022,,,A*56
$GPGGA,051652.000,4540.6776,N,00842.4058,E,1,09,1.0,258.0,M,47.2,M,,0000*5D
$GPGSA,A,3,27,08,10,21,23,16,32,01,22,,,,1.7,1.0,1.3*3E
$GPGSV,4,1,14,01,16,265,29,08,70,301,41,10,57,065,32,14,02,331,*7A
$GPGSV,4,2,14,16,22,188,34,21,43,277,40,22,07,144,22,23,27,048,24*71
$GPGSV,4,3,14,26,00,176,,27,69,132,39,32,21,121,21,39,15,116,*74
$GPGSV,4,4,14,40,21,124,,41,02,101,*7B
$GSENSORD,0.120,0.180,-0.180
$GPRMC,051653.000,A,4540.6722,N,00842.4013,E,22.81,209.67,051022,,,A*51
$GPGGA,051653.000,4540.6722,N,00842.4013,E,1,08,1.0,257.8,M,47.2,M,,0000*54
$GPGSA,A,3,27,08,10,21,23,16,01,22,,,,,1.7,1.0,1.3*3F
$GPGSV,4,1,14,01,16,265,27,08,70,301,42,10,57,065,35,14,02,331,*70
$GPGSV,4,2,14,16,22,188,35,21,43,277,33,22,07,144,19,23,27,048,24*7C
$GPGSV,4,3,14,26,00,176,,27,69,132,37,32,21,121,,39,15,116,*79
$GPGSV,4,4,14,40,21,124,,41,02,101,*7B
$GSENSORD,0.000,0.000,0.000
$GPRMC,051654.000,A,4540.6665,N,00842.3968,E,23.57,209.77,051022,,,A*5D
$GPGGA,051654.000,4540.6665,N,00842.3968,E,1,08,1.0,257.3,M,47.2,M,,0000*58
$GPGSA,A,3,27,08,10,21,23,16,32,01,,,,,1.8,1.0,1.4*36
$GPGSV,4,1,14,01,16,265,27,08,70,301,42,10,57,065,34,14,02,331,*71
$GPGSV,4,2,14,16,22,188,35,21,43,277,40,22,07,144,,23,27,048,21*75
$GPGSV,4,3,14,26,00,176,,27,69,132,38,32,21,121,30,39,15,116,*75
$GPGSV,4,4,14,40,21,124,,41,02,101,*7B
$GSENSORD,-0.060,0.120,-0.120
$GPRMC,051655.000,A,4540.6606,N,00842.3920,E,24.23,209.74,051022,,,A*52
$GPGGA,051655.000,4540.6606,N,00842.3920,E,1,08,1.0,257.2,M,47.2,M,,0000*51
$GPGSA,A,3,27,08,10,21,23,16,32,01,,,,,1.8,1.0,1.4*36
$GPGSV,4,1,14,01,16,265,36,08,70,301,39,10,57,065,35,14,02,331,*7C
$GPGSV,4,2,14,16,22,188,36,21,43,277,36,22,07,144,,23,27,048,23*75
$GPGSV,4,3,14,26,00,176,,27,69,132,38,32,21,121,33,39,15,116,*76
$GPGSV,4,4,14,40,21,124,,41,02,101,*7B
$GSENSORD,0.180,0.120,0.060
$GPRMC,051656.000,A,4540.6547,N,00842.3871,E,24.88,210.82,051022,,,A*52
$GPGGA,051656.000,4540.6547,N,00842.3871,E,1,08,1.0,256.9,M,47.2,M,,0000*5B
$GPGSA,A,3,27,08,10,21,23,16,32,01,,,,,1.8,1.0,1.4*36
$GPGSV,4,1,14,01,16,265,31,08,70,301,43,10,57,065,35,14,02,331,*76
$GPGSV,4,2,14,16,22,188,35,21,43,277,33,22,07,144,,23,27,048,22*72
$GPGSV,4,3,14,26,00,176,,27,69,132,38,32,21,121,29,39,15,116,*7D
$GPGSV,4,4,14,40,21,124,,41,02,101,*7B
$GSENSORD,0.180,0.310,-0.120
$GPRMC,051657.000,A,4540.6486,N,00842.3820,E,25.68,210.56,051022,,,A*5D
$GPGGA,051657.000,4540.6486,N,00842.3820,E,1,08,1.0,256.4,M,47.2,M,,0000*5F
$GPGSA,A,3,27,08,10,21,23,16,32,01,,,,,1.8,1.0,1.4*36
$GPGSV,4,1,14,01,16,265,37,08,70,301,38,10,57,065,36,14,02,331,*7F
$GPGSV,4,2,14,16,22,188,36,21,43,277,33,22,07,144,18,23,27,048,22*78
$GPGSV,4,3,14,26,00,176,,27,69,132,37,32,21,121,20,39,15,116,*7B
$GPGSV,4,4,14,40,21,124,,41,02,101,*7B
$GSENSORD,0.000,0.000,-0.250
$GPRMC,051658.000,A,4540.6425,N,00842.3769,E,25.78,210.88,051022,,,A*5B
$GPGGA,051658.000,4540.6425,N,00842.3769,E,1,08,1.0,256.3,M,47.2,M,,0000*5C
$GPGSA,A,3,27,08,10,21,23,16,32,01,,,,,1.8,1.0,1.4*36
$GPGSV,4,1,14,01,16,265,40,08,70,301,42,10,57,065,33,14,02,331,*77
$GPGSV,4,2,14,16,22,188,35,21,43,277,36,22,07,144,17,23,27,048,22*71
$GPGSV,4,3,14,26,00,176,,27,69,132,38,32,21,121,23,39,15,116,*77
$GPGSV,4,4,14,40,21,124,,41,02,101,*7B
$GSENSORD,-0.310,0.310,-0.250
$GPRMC,051659.000,A,4540.6364,N,00842.3718,E,24.82,210.83,051022,,,A*51
$GPGGA,051659.000,4540.6364,N,00842.3718,E,1,08,1.0,256.0,M,47.2,M,,0000*5A
$GPGSA,A,3,27,08,10,21,23,16,32,01,,,,,1.8,1.0,1.4*36
$GPGSV,4,1,14,01,16,265,38,08,70,301,41,10,57,065,34,14,02,331,*7C
$GPGSV,4,2,14,16,22,188,37,21,43,277,35,22,07,144,16,23,27,048,22*71
$GPGSV,4,3,14,26,00,176,,27,69,132,37,32,21,121,23,39,15,116,*78
$GPGSV,4,4,14,40,21,124,,41,02,101,*7B
$GSENSORD,-0.060,0.180,-0.120
$GPRMC,051700.000,A,4540.6306,N,00842.3669,E,24.03,210.58,051022,,,A*50
$GPGGA,051700.000,4540.6306,N,00842.3669,E,1,09,1.0,255.5,M,47.2,M,,0000*53
$GPGSA,A,3,27,08,10,21,23,16,32,01,22,,,,1.6,1.0,1.3*3F
$GPGSV,4,1,14,01,16,265,33,08,70,301,40,10,57,065,34,14,02,331,*76
$GPGSV,4,2,14,16,22,188,35,21,43,277,39,22,07,144,27,23,27,048,22*7D
$GPGSV,4,3,14,26,00,176,,27,69,132,37,32,21,121,23,39,15,116,*78
$GPGSV,4,4,14,40,21,124,,41,02,101,*7B
$GSENSORD,-0.060,0.180,0.120
$GPRMC,051701.000,A,4540.6250,N,00842.3622,E,23.25,210.51,051022,,,A*56
$GPGGA,051701.000,4540.6250,N,00842.3622,E,1,09,1.0,255.2,M,47.2,M,,0000*58
$GPGSA,A,3,27,08,10,21,23,16,32,01,22,,,,1.6,1.0,1.3*3F
$GPGSV,4,1,14,01,16,265,31,08,70,301,38,10,57,065,34,14,02,331,*7B
$GPGSV,4,2,14,16,22,188,37,21,43,277,32,22,07,144,20,23,27,048,21*70
$GPGSV,4,3,14,26,00,176,,27,69,132,37,32,21,121,31,39,15,116,*7B
$GPGSV,4,4,14,40,21,124,,41,02,101,*7B
$GSENSORD,-0.060,0.180,-0.120
$GPRMC,051702.000,A,4540.6195,N,00842.3575,E,22.38,210.83,051022,,,A*5C
$GPGGA,051702.000,4540.6195,N,00842.3575,E,1,09,1.0,255.2,M,47.2,M,,0000*50
$GPGSA,A,3,27,08,10,21,23,16,32,01,22,,,,1.6,1.0,1.3*3F
$GPGSV,4,1,14,01,16,265,37,08,70,301,41,10,57,065,34,14,02,331,*73
$GPGSV,4,2,14,16,22,188,36,21,43,277,38,22,07,144,19,23,27,048,21*71
$GPGSV,4,3,14,26,00,176,,27,69,132,37,32,21,121,30,39,15,116,*7A
$GPGSV,4,4,14,40,21,124,,41,02,101,*7B
$GSENSORD,-0.180,0.000,0.000
$GPRMC,051703.000,A,4540.6143,N,00842.3531,E,21.58,210.59,051022,,,A*54
$GPGGA,051703.000,4540.6143,N,00842.3531,E,1,09,1.0,254.9,M,47.2,M,,0000*50
$GPGSA,A,3,27,08,10,21,23,16,32,01,22,,,,1.6,1.0,1.3*3F
$GPGSV,4,1,14,01,16,265,26,08,71,301,42,10,57,065,34,14,02,331,*71
$GPGSV,4,2,14,16,22,188,34,21,43,277,41,22,07,144,29,23,27,048,21*7E
$GPGSV,4,3,14,26,00,176,,27,69,132,37,32,21,121,30,39,15,116,*7A
$GPGSV,4,4,14,40,21,124,,41,02,101,*7B
$GSENSORD,-0.120,0.180,-0.180
$GPRMC,051704.000,A,4540.6094,N,00842.3489,E,20.92,210.35,051022,,,A*57
$GPGGA,051704.000,4540.6094,N,00842.3489,E,1,09,1.0,254.5,M,47.2,M,,0000*52
$GPGSA,A,3,27,08,10,21,23,16,32,01,22,,,,1.6,1.0,1.3*3F
$GPGSV,4,1,14,01,16,265,35,08,71,301,42,10,57,065,34,14,02,331,*73
$GPGSV,4,2,14,16,22,188,36,21,43,277,42,22,07,144,22,23,27,048,21*74
$GPGSV,4,3,14,26,00,176,,27,69,132,37,32,21,121,29,39,15,116,*72
$GPGSV,4,4,14,40,21,124,,41,02,101,*7B
$GSENSORD,-0.180,0.180,-0.060
$GPRMC,051705.000,A,4540.6045,N,00842.3450,E,19.95,209.47,051022,,,A*5E
$GPGGA,051705.000,4540.6045,N,00842.3450,E,1,08,1.5,254.0,M,47.2,M,,0000*5A
$GPGSA,A,3,27,08,10,21,16,32,01,22,,,,,2.3,1.5,1.7*39
$GPGSV,4,1,14,01,16,265,37,08,71,301,41,10,57,064,35,14,02,331,*72
$GPGSV,4,2,14,16,22,188,32,21,43,277,40,22,07,144,19,23,27,048,25*7E
$GPGSV,4,3,14,26,00,176,,27,69,132,37,32,21,121,20,39,15,116,*7B
$GPGSV,4,4,14,40,21,124,,41,02,101,*7B
$GSENSORD,-0.250,0.180,-0.120
$GPRMC,051706.000,A,4540.6000,N,00842.3414,E,17.95,209.24,051022,,,A*57
$GPGGA,051706.000,4540.6000,N,00842.3414,E,1,08,1.5,253.4,M,47.2,M,,0000*5B
$GPGSA,A,3,27,08,10,21,16,32,01,22,,,,,2.3,1.5,1.7*39
$GPGSV,4,1,14,01,16,265,38,08,71,301,41,10,57,064,32,14,02,331,*7A
$GPGSV,4,2,14,16,22,188,29,21,43,277,38,22,07,144,16,23,27,048,23*72
$GPGSV,4,3,14,26,00,176,,27,69,132,34,32,21,121,22,39,15,116,*7A
$GPGSV,4,4,14,40,21,124,,41,02,101,*7B
$GSENSORD,0.000,0.000,0.000
$GPRMC,051707.000,A,4540.5962,N,00842.3382,E,15.03,209.50,051022,,,A*5E
$GPGGA,051707.000,4540.5962,N,00842.3382,E,1,09,1.0,252.8,M,47.2,M,,0000*55
$GPGSA,A,3,27,08,10,21,23,16,32,01,22,,,,1.6,1.0,1.3*3F
$GPGSV,4,1,14,01,16,265,33,08,71,301,41,10,57,064,35,14,02,331,*76
$GPGSV,4,2,14,16,22,188,33,21,43,277,40,22,07,144,18,23,27,048,22*79
$GPGSV,4,3,14,26,00,176,,27,69,132,36,32,21,121,30,39,15,116,*7B
$GPGSV,4,4,14,40,21,124,27,41,02,101,*7E
$GSENSORD,-0.250,0.180,-0.120
$GPRMC,051708.000,A,4540.5931,N,00842.3357,E,11.85,209.11,051022,,,A*50
$GPGGA,051708.000,4540.5931,N,00842.3357,E,1,09,1.0,252.4,M,47.2,M,,0000*58
$GPGSA,A,3,27,08,10,21,23,16,32,01,22,,,,1.6,1.0,1.3*3F
$GPGSV,4,1,14,01,16,265,21,08,71,301,38,10,57,064,34,14,02,331,*7A
$GPGSV,4,2,14,16,22,188,29,21,43,277,36,22,07,144,31,23,27,048,22*78
$GPGSV,4,3,14,26,00,176,,27,69,132,33,32,21,121,20,39,15,116,*7F
$GPGSV,4,4,14,40,21,124,,41,02,101,*7B
$GSENSORD,-0.060,0.120,-0.120
$GPRMC,051709.000,A,4540.5906,N,00842.3336,E,10.15,208.69,051022,,,A*54
$GPGGA,051709.000,4540.5906,N,00842.3336,E,1,09,1.0,252.1,M,47.2,M,,0000*5F
$GPGSA,A,3,27,08,10,21,23,16,32,01,22,,,,1.6,1.0,1.3*3F
$GPGSV,4,1,14,01,16,265,18,08,71,301,41,10,57,064,37,14,02,331,*7D
$GPGSV,4,2,14,16,22,188,33,21,43,277,43,22,07,144,22,23,27,048,23*72
$GPGSV,4,3,14,26,00,176,,27,69,132,38,32,21,121,23,39,15,116,*77
$GPGSV,4,4,14,40,21,124,,41,02,101,*7B
$GSENSORD,0.060,0.120,-0.120
$GPRMC,051710.000,A,4540.5881,N,00842.3317,E,10.00,208.81,051022,,,A*53
$GPGGA,051710.000,4540.5881,N,00842.3317,E,1,09,1.0,251.7,M,47.2,M,,0000*5F
$GPGSA,A,3,27,08,10,21,23,16,32,01,22,,,,1.6,1.0,1.3*3F
$GPGSV,4,1,14,01,16,265,14,08,71,301,39,10,57,064,35,14,02,331,*7C
$GPGSV,4,2,14,16,22,188,29,21,43,277,22,22,07,144,20,23,27,048,25*7A
$GPGSV,4,3,14,26,00,176,,27,69,132,35,32,21,121,30,39,15,116,*78
$GPGSV,4,4,14,40,21,124,,41,02,101,*7B
$GSENSORD,0.000,0.120,-0.120
$GPRMC,051711.000,A,4540.5857,N,00842.3300,E,9.84,207.32,051022,,,A*6C
$GPGGA,051711.000,4540.5857,N,00842.3300,E,1,09,1.0,251.1,M,47.2,M,,0000*55
$GPGSA,A,3,27,08,10,21,23,16,32,01,22,,,,1.6,1.0,1.3*3F
$GPGSV,4,1,14,01,16,265,13,08,71,301,42,10,57,064,36,14,02,331,*74
$GPGSV,4,2,14,16,21,187,36,21,43,277,21,22,07,144,16,23,27,048,26*7D
$GPGSV,4,3,14,26,00,176,,27,69,132,39,32,21,121,22,39,15,116,*77
$GPGSV,4,4,14,40,21,124,,41,02,101,*7B
$GSENSORD,-0.060,0.000,0.000
$GPRMC,051712.000,A,4540.5831,N,00842.3282,E,10.08,207.68,051022,,,A*57
$GPGGA,051712.000,4540.5831,N,00842.3282,E,1,09,1.0,250.9,M,47.2,M,,0000*54
$GPGSA,A,3,27,08,10,21,23,16,32,01,22,,,,1.6,1.0,1.3*3F
$GPGSV,4,1,14,01,16,265,13,08,71,301,42,10,57,064,36,14,02,331,*74
$GPGSV,4,2,14,16,21,187,35,21,43,277,19,22,07,144,27,23,27,048,26*77
$GPGSV,4,3,14,26,00,176,,27,69,132,39,32,21,121,21,39,15,116,*74
$GPGSV,4,4,14,40,21,124,,41,02,101,*7B
$GSENSORD,-0.180,0.120,-0.120
$GPRMC,051713.000,A,4540.5810,N,00842.3261,E,9.39,212.61,051022,,,A*6F
$GPGGA,051713.000,4540.5810,N,00842.3261,E,1,09,1.0,250.1,M,47.2,M,,0000*53
$GPGSA,A,3,27,08,10,21,23,16,32,01,22,,,,1.6,1.0,1.3*3F
$GPGSV,4,1,14,01,16,265,13,08,71,301,37,10,57,064,38,14,02,331,*78
$GPGSV,4,2,14,16,21,187,37,21,43,277,16,22,07,144,33,23,27,048,26*7F
$GPGSV,4,3,14,26,00,176,,27,69,132,37,32,21,121,20,39,15,116,*7B
$GPGSV,4,4,14,40,21,124,,41,02,101,*7B
$GSENSORD,-0.250,0.120,-0.120
$GPRMC,051714.000,A,4540.5792,N,00842.3241,E,6.61,218.36,051022,,,A*65
$GPGGA,051714.000,4540.5792,N,00842.3241,E,1,09,1.0,250.3,M,47.2,M,,0000*51
$GPGSA,A,3,27,08,10,21,23,16,32,01,22,,,,1.6,1.0,1.3*3F
$GPGSV,4,1,14,01,16,265,13,08,71,301,43,10,57,064,38,14,02,331,*7B
$GPGSV,4,2,14,16,21,187,37,21,43,277,15,22,07,144,33,23,27,048,27*7D
$GPGSV,4,3,14,26,00,176,,27,69,132,34,32,21,121,21,39,15,116,*79
$GPGSV,4,4,14,40,21,124,,41,02,101,*7B
$GSENSORD,-0.120,0.120,-0.120
$GPRMC,051715.000,A,4540.5786,N,00842.3231,E,2.77,219.46,051022,,,A*63
$GPGGA,051715.000,4540.5786,N,00842.3231,E,1,08,1.0,249.7,M,47.2,M,,0000*5F
$GPGSA,A,3,27,08,10,23,16,32,01,22,,,,,1.7,1.0,1.3*3D
$GPGSV,4,1,14,01,16,265,23,08,71,301,37,10,57,064,38,14,02,331,*7B
$GPGSV,4,2,14,16,21,187,37,21,43,277,18,22,07,144,33,23,27,048,28*7F
$GPGSV,4,3,14,26,00,176,,27,69,132,34,32,21,121,22,39,15,116,*7A
$GPGSV,4,4,14,40,21,124,,41,02,101,*7B
$GSENSORD,0.000,0.000,0.000
$GPRMC,051716.000,A,4540.5782,N,00842.3227,E,0.17,219.46,051022,,,A*67
$GPGGA,051716.000,4540.5782,N,00842.3227,E,1,08,1.0,249.8,M,47.2,M,,0000*50
$GPGSA,A,3,27,08,10,23,16,32,01,22,,,,,1.7,1.0,1.3*3D
$GPGSV,4,1,14,01,16,265,27,08,71,301,35,10,57,064,38,14,02,331,*7D
$GPGSV,4,2,14,16,21,187,36,21,44,277,19,22,07,144,29,23,27,048,33*79
$GPGSV,4,3,14,26,00,176,,27,69,132,36,32,21,121,22,39,15,116,*78
$GPGSV,4,4,14,40,21,124,,41,02,101,*7B
$GSENSORD,0.000,0.120,-0.060
$GPRMC,051717.000,A,4540.5781,N,00842.3227,E,0.33,219.46,051022,,,A*63
$GPGGA,051717.000,4540.5781,N,00842.3227,E,1,08,1.0,249.8,M,47.2,M,,0000*52
$GPGSA,A,3,27,08,10,23,16,32,01,22,,,,,1.7,1.0,1.3*3D
$GPGSV,4,1,14,01,16,265,25,08,71,301,34,10,57,064,37,14,02,331,*71
$GPGSV,4,2,14,16,21,187,32,21,44,277,19,22,07,144,29,23,27,048,32*7C
$GPGSV,4,3,14,26,00,176,,27,69,132,34,32,21,121,19,39,15,116,*72
$GPGSV,4,4,14,40,21,124,,41,02,101,*7B
$GSENSORD,0.000,0.120,-0.060
$GPRMC,051718.000,A,4540.5779,N,00842.3225,E,0.26,219.46,051022,,,A*6D
$GPGGA,051718.000,4540.5779,N,00842.3225,E,1,09,1.0,250.4,M,47.2,M,,0000*5D
$GPGSA,A,3,27,08,10,21,23,16,32,01,22,,,,1.6,1.0,1.3*3F
